[
	{
		"Title": "World History from Origins to 1400",
		"Subject": "HIST",
		"Level": "1110",
		"Hours": "3",
		"CRN": "41145",
		"Meeting": [
			{
				"days": "",
				"hours": " - "
			}
		],
		"Campus": "UT Chattanooga"
	},
	{
		"Title": "World History from Origins to 1400",
		"Subject": "HIST",
		"Level": "1110",
		"Hours": "3",
		"CRN": "41483",
		"Meeting": [
			{
				"days": "TT",
				"hours": "01:40  PM - 02:55  PM"
			}
		],
		"Campus": "UT Chattanooga"
	},
	{
		"Title": "World History from Origins to 1400",
		"Subject": "HIST",
		"Level": "1110",
		"Hours": "3",
		"CRN": "42180",
		"Meeting": [
			{
				"days": "MWF",
				"hours": "11:00  AM - 11:50  AM"
			}
		],
		"Campus": "UT Chattanooga"
	},
	{
		"Title": "World History from Origins to 1400",
		"Subject": "HIST",
		"Level": "1110",
		"Hours": "3",
		"CRN": "41970",
		"Meeting": [
			{
				"days": "MWF",
				"hours": "12:00  PM - 12:50  PM"
			}
		],
		"Campus": "UT Chattanooga"
	},
	{
		"Title": "World History from Origins to 1400",
		"Subject": "HIST",
		"Level": "1110",
		"Hours": "3",
		"CRN": "43380",
		"Meeting": [
			{
				"days": "",
				"hours": " - "
			}
		],
		"Campus": "UT Chattanooga"
	},
	{
		"Title": "World History from Origins to 1400",
		"Subject": "HIST",
		"Level": "1110",
		"Hours": "3",
		"CRN": "43381",
		"Meeting": [
			{
				"days": "",
				"hours": " - "
			}
		],
		"Campus": "UT Chattanooga"
	},
	{
		"Title": "World History from Origins to 1400",
		"Subject": "HIST",
		"Level": "1110",
		"Hours": "3",
		"CRN": "41142",
		"Meeting": [
			{
				"days": "",
				"hours": " - "
			}
		],
		"Campus": "UT Chattanooga"
	},
	{
		"Title": "World History from Origins to 1400",
		"Subject": "HIST",
		"Level": "1110",
		"Hours": "3",
		"CRN": "41143",
		"Meeting": [
			{
				"days": "",
				"hours": " - "
			}
		],
		"Campus": "UT Chattanooga"
	},
	{
		"Title": "World History from Origins to 1400",
		"Subject": "HIST",
		"Level": "1110",
		"Hours": "3",
		"CRN": "41144",
		"Meeting": [
			{
				"days": "",
				"hours": " - "
			}
		],
		"Campus": "UT Chattanooga"
	},
	{
		"Title": "World History from Origins to 1400",
		"Subject": "HIST",
		"Level": "1110",
		"Hours": "3",
		"CRN": "41303",
		"Meeting": [
			{
				"days": "",
				"hours": " - "
			}
		],
		"Campus": "UT Chattanooga"
	},
	{
		"Title": "World History from Origins to 1400",
		"Subject": "HIST",
		"Level": "1110",
		"Hours": "3",
		"CRN": "42960",
		"Meeting": [
			{
				"days": "",
				"hours": " - "
			}
		],
		"Campus": "UT Chattanooga"
	},
	{
		"Title": "World History from Origins to 1400",
		"Subject": "HIST",
		"Level": "1110",
		"Hours": "3",
		"CRN": "42961",
		"Meeting": [
			{
				"days": "",
				"hours": " - "
			}
		],
		"Campus": "UT Chattanooga"
	},
	{
		"Title": "World History from Origins to 1400",
		"Subject": "HIST",
		"Level": "1110",
		"Hours": "3",
		"CRN": "43382",
		"Meeting": [
			{
				"days": "",
				"hours": " - "
			}
		],
		"Campus": "UT Chattanooga"
	},
	{
		"Title": "World History from 1400-Present",
		"Subject": "HIST",
		"Level": "1120",
		"Hours": "3",
		"CRN": "41146",
		"Meeting": [
			{
				"days": "",
				"hours": " - "
			}
		],
		"Campus": "UT Chattanooga"
	},
	{
		"Title": "World History from 1400-Present",
		"Subject": "HIST",
		"Level": "1120",
		"Hours": "3",
		"CRN": "41434",
		"Meeting": [
			{
				"days": "",
				"hours": " - "
			}
		],
		"Campus": "UT Chattanooga"
	},
	{
		"Title": "World History from 1400-Present",
		"Subject": "HIST",
		"Level": "1120",
		"Hours": "3",
		"CRN": "43367",
		"Meeting": [
			{
				"days": "MW",
				"hours": "03:25  PM - 04:40  PM"
			}
		],
		"Campus": "UT Chattanooga"
	},
	{
		"Title": "World History from 1400-Present",
		"Subject": "HIST",
		"Level": "1120",
		"Hours": "3",
		"CRN": "41452",
		"Meeting": [
			{
				"days": "TT",
				"hours": "09:25  AM - 10:40  AM"
			}
		],
		"Campus": "UT Chattanooga"
	},
	{
		"Title": "World History from 1400-Present",
		"Subject": "HIST",
		"Level": "1120",
		"Hours": "3",
		"CRN": "41150",
		"Meeting": [
			{
				"days": "",
				"hours": " - "
			}
		],
		"Campus": "UT Chattanooga"
	},
	{
		"Title": "World History from 1400-Present",
		"Subject": "HIST",
		"Level": "1120",
		"Hours": "3",
		"CRN": "41147",
		"Meeting": [
			{
				"days": "",
				"hours": " - "
			}
		],
		"Campus": "UT Chattanooga"
	},
	{
		"Title": "World History from 1400-Present",
		"Subject": "HIST",
		"Level": "1120",
		"Hours": "3",
		"CRN": "41148",
		"Meeting": [
			{
				"days": "",
				"hours": " - "
			}
		],
		"Campus": "UT Chattanooga"
	},
	{
		"Title": "World History from 1400-Present",
		"Subject": "HIST",
		"Level": "1120",
		"Hours": "3",
		"CRN": "41231",
		"Meeting": [
			{
				"days": "",
				"hours": " - "
			}
		],
		"Campus": "UT Chattanooga"
	},
	{
		"Title": "The First Year Experience",
		"Subject": "HIST",
		"Level": "1999R",
		"Hours": "1",
		"CRN": "43841",
		"Meeting": [
			{
				"days": "W",
				"hours": "11:00  AM - 11:50  AM"
			}
		],
		"Campus": "UT Chattanooga"
	},
	{
		"Title": "United States to 1865",
		"Subject": "HIST",
		"Level": "2010",
		"Hours": "3",
		"CRN": "41299",
		"Meeting": [
			{
				"days": "",
				"hours": " - "
			}
		],
		"Campus": "UT Chattanooga"
	},
	{
		"Title": "United States to 1865",
		"Subject": "HIST",
		"Level": "2010",
		"Hours": "3",
		"CRN": "41300",
		"Meeting": [
			{
				"days": "",
				"hours": " - "
			}
		],
		"Campus": "UT Chattanooga"
	},
	{
		"Title": "United States to 1865",
		"Subject": "HIST",
		"Level": "2010",
		"Hours": "3",
		"CRN": "41151",
		"Meeting": [
			{
				"days": "",
				"hours": " - "
			}
		],
		"Campus": "UT Chattanooga"
	},
	{
		"Title": "United States to 1865",
		"Subject": "HIST",
		"Level": "2010",
		"Hours": "3",
		"CRN": "43383",
		"Meeting": [
			{
				"days": "",
				"hours": " - "
			}
		],
		"Campus": "UT Chattanooga"
	},
	{
		"Title": "United States since 1865",
		"Subject": "HIST",
		"Level": "2020",
		"Hours": "3",
		"CRN": "41154",
		"Meeting": [
			{
				"days": "MWF",
				"hours": "08:00  AM - 08:50  AM"
			}
		],
		"Campus": "UT Chattanooga"
	},
	{
		"Title": "United States since 1865",
		"Subject": "HIST",
		"Level": "2020",
		"Hours": "3",
		"CRN": "41152",
		"Meeting": [
			{
				"days": "TT",
				"hours": "09:25  AM - 10:40  AM"
			}
		],
		"Campus": "UT Chattanooga"
	},
	{
		"Title": "United States since 1865",
		"Subject": "HIST",
		"Level": "2020",
		"Hours": "3",
		"CRN": "43368",
		"Meeting": [
			{
				"days": "",
				"hours": " - "
			}
		],
		"Campus": "UT Chattanooga"
	},
	{
		"Title": "United States since 1865",
		"Subject": "HIST",
		"Level": "2020",
		"Hours": "3",
		"CRN": "41604",
		"Meeting": [
			{
				"days": "",
				"hours": " - "
			}
		],
		"Campus": "UT Chattanooga"
	},
	{
		"Title": "United States since 1865",
		"Subject": "HIST",
		"Level": "2020",
		"Hours": "3",
		"CRN": "41475",
		"Meeting": [
			{
				"days": "",
				"hours": " - "
			}
		],
		"Campus": "UT Chattanooga"
	},
	{
		"Title": "History of Tennessee",
		"Subject": "HIST",
		"Level": "2030",
		"Hours": "3",
		"CRN": "41180",
		"Meeting": [
			{
				"days": "",
				"hours": " - "
			}
		],
		"Campus": "UT Chattanooga"
	},
	{
		"Title": "History of Tennessee",
		"Subject": "HIST",
		"Level": "2030",
		"Hours": "3",
		"CRN": "43384",
		"Meeting": [
			{
				"days": "",
				"hours": " - "
			}
		],
		"Campus": "UT Chattanooga"
	},
	{
		"Title": "Research and Writing in History",
		"Subject": "HIST",
		"Level": "2100",
		"Hours": "3",
		"CRN": "41179",
		"Meeting": [
			{
				"days": "TT",
				"hours": "09:25  AM - 10:40  AM"
			}
		],
		"Campus": "UT Chattanooga"
	},
	{
		"Title": "Research and Writing in History",
		"Subject": "HIST",
		"Level": "2100",
		"Hours": "3",
		"CRN": "41236",
		"Meeting": [
			{
				"days": "TT",
				"hours": "10:50  AM - 12:05  PM"
			}
		],
		"Campus": "UT Chattanooga"
	},
	{
		"Title": "Research and Writing in History",
		"Subject": "HIST",
		"Level": "2100",
		"Hours": "3",
		"CRN": "42769",
		"Meeting": [
			{
				"days": "TT",
				"hours": "12:15  PM - 01:30  PM"
			}
		],
		"Campus": "UT Chattanooga"
	},
	{
		"Title": "Research and Writing in History",
		"Subject": "HIST",
		"Level": "2100",
		"Hours": "3",
		"CRN": "42181",
		"Meeting": [
			{
				"days": "TT",
				"hours": "01:40  PM - 02:55  PM"
			}
		],
		"Campus": "UT Chattanooga"
	},
	{
		"Title": "Medieval Europe: c. 300-1500",
		"Subject": "HIST",
		"Level": "2210",
		"Hours": "3",
		"CRN": "43369",
		"Meeting": [
			{
				"days": "MWF",
				"hours": "10:00  AM - 10:50  AM"
			}
		],
		"Campus": "UT Chattanooga"
	},
	{
		"Title": "Modern Europe: c. 1800-present",
		"Subject": "HIST",
		"Level": "2230",
		"Hours": "3",
		"CRN": "43370",
		"Meeting": [
			{
				"days": "TT",
				"hours": "09:25  AM - 10:40  AM"
			}
		],
		"Campus": "UT Chattanooga"
	},
	{
		"Title": "Early National and Antebellum America",
		"Subject": "HIST",
		"Level": "2420",
		"Hours": "3",
		"CRN": "43371",
		"Meeting": [
			{
				"days": "TT",
				"hours": "12:15  PM - 01:30  PM"
			}
		],
		"Campus": "UT Chattanooga"
	},
	{
		"Title": "History of Sub-Saharan Africa since 1800",
		"Subject": "HIST",
		"Level": "2620",
		"Hours": "3",
		"CRN": "43372",
		"Meeting": [
			{
				"days": "",
				"hours": " - "
			}
		],
		"Campus": "UT Chattanooga"
	},
	{
		"Title": "History of Sub-Saharan Africa since 1800",
		"Subject": "HIST",
		"Level": "2620",
		"Hours": "3",
		"CRN": "43373",
		"Meeting": [
			{
				"days": "",
				"hours": " - "
			}
		],
		"Campus": "UT Chattanooga"
	},
	{
		"Title": "History of Sub-Saharan Africa since 1800",
		"Subject": "HIST",
		"Level": "2620",
		"Hours": "3",
		"CRN": "43968",
		"Meeting": [
			{
				"days": "",
				"hours": " - "
			}
		],
		"Campus": "UT Chattanooga"
	},
	{
		"Title": "History of the Modern Middle East",
		"Subject": "HIST",
		"Level": "2880",
		"Hours": "3",
		"CRN": "43374",
		"Meeting": [
			{
				"days": "MW",
				"hours": "02:00  PM - 03:15  PM"
			}
		],
		"Campus": "UT Chattanooga"
	},
	{
		"Title": "Renaissance Culture and Society",
		"Subject": "HIST",
		"Level": "3200",
		"Hours": "3",
		"CRN": "43375",
		"Meeting": [
			{
				"days": "MW",
				"hours": "02:00  PM - 03:15  PM"
			}
		],
		"Campus": "UT Chattanooga"
	},
	{
		"Title": "African American History to 1865",
		"Subject": "HIST",
		"Level": "3450",
		"Hours": "3",
		"CRN": "43377",
		"Meeting": [
			{
				"days": "TT",
				"hours": "09:25  AM - 10:40  AM"
			}
		],
		"Campus": "UT Chattanooga"
	},
	{
		"Title": "American Popular Culture",
		"Subject": "HIST",
		"Level": "3470",
		"Hours": "3",
		"CRN": "43378",
		"Meeting": [
			{
				"days": "MW",
				"hours": "05:00  PM - 06:15  PM"
			}
		],
		"Campus": "UT Chattanooga"
	},
	{
		"Title": "Modern Japan",
		"Subject": "HIST",
		"Level": "3640",
		"Hours": "3",
		"CRN": "43886",
		"Meeting": [
			{
				"days": "T",
				"hours": "02:00  PM - 04:30  PM"
			}
		],
		"Campus": "UT Chattanooga"
	},
	{
		"Title": "Topics: Evangelicalism in the 18th-Century British Atlantic",
		"Subject": "HIST",
		"Level": "3930R",
		"Hours": "3",
		"CRN": "42190",
		"Meeting": [
			{
				"days": "TT",
				"hours": "10:50  AM - 12:05  PM"
			}
		],
		"Campus": "UT Chattanooga"
	},
	{
		"Title": "Topics: History of Central Europe",
		"Subject": "HIST",
		"Level": "3930R",
		"Hours": "3",
		"CRN": "43566",
		"Meeting": [
			{
				"days": "T",
				"hours": "05:00  PM - 07:30  PM"
			}
		],
		"Campus": "UT Chattanooga"
	},
	{
		"Title": "Topics: Indian Ocean World",
		"Subject": "HIST",
		"Level": "3940R",
		"Hours": "3",
		"CRN": "42191",
		"Meeting": [
			{
				"days": "MW",
				"hours": "02:00  PM - 03:15  PM"
			}
		],
		"Campus": "UT Chattanooga"
	},
	{
		"Title": "The Historian's Craft: Capstone in History",
		"Subject": "HIST",
		"Level": "4020",
		"Hours": "3",
		"CRN": "41123",
		"Meeting": [
			{
				"days": "T",
				"hours": "02:00  PM - 04:30  PM"
			}
		],
		"Campus": "UT Chattanooga"
	},
	{
		"Title": "Reformation and Religious Conflict in Early Modern Europe",
		"Subject": "HIST",
		"Level": "4500R",
		"Hours": "3",
		"CRN": "42192",
		"Meeting": [
			{
				"days": "TT",
				"hours": "03:05  PM - 04:20  PM"
			}
		],
		"Campus": "UT Chattanooga"
	},
	{
		"Title": "Marriage and Family in Colonial Africa",
		"Subject": "HIST",
		"Level": "4500R",
		"Hours": "3",
		"CRN": "42193",
		"Meeting": [
			{
				"days": "TT",
				"hours": "10:50  AM - 12:05  PM"
			}
		],
		"Campus": "UT Chattanooga"
	},
	{
		"Title": "Internships in History",
		"Subject": "HIST",
		"Level": "4920R",
		"Hours": "1 TO 3",
		"CRN": "42194",
		"Meeting": [
			{
				"days": "",
				"hours": " - "
			}
		],
		"Campus": "UT Chattanooga"
	},
	{
		"Title": "Departmental Thesis",
		"Subject": "HIST",
		"Level": "4995R",
		"Hours": "1 TO 3",
		"CRN": "43770",
		"Meeting": [
			{
				"days": "",
				"hours": " - "
			}
		],
		"Campus": "UT Chattanooga"
	},
	{
		"Title": "Departmental Thesis",
		"Subject": "HIST",
		"Level": "4995R",
		"Hours": "1 TO 3",
		"CRN": "43771",
		"Meeting": [
			{
				"days": "",
				"hours": " - "
			}
		],
		"Campus": "UT Chattanooga"
	},
	{
		"Title": "Departmental Thesis",
		"Subject": "HIST",
		"Level": "4995R",
		"Hours": "1 TO 3",
		"CRN": "43772",
		"Meeting": [
			{
				"days": "",
				"hours": " - "
			}
		],
		"Campus": "UT Chattanooga"
	},
	{
		"Title": "Departmental Thesis",
		"Subject": "HIST",
		"Level": "4995R",
		"Hours": "1 TO 3",
		"CRN": "43773",
		"Meeting": [
			{
				"days": "",
				"hours": " - "
			}
		],
		"Campus": "UT Chattanooga"
	}
]