[
	{
		"Title": "Thermodynamics",
		"Subject": "ENCH",
		"Level": "3030",
		"Hours": "3",
		"CRN": "41018",
		"Meeting": [
			{
				"days": "MWF",
				"hours": "12:00  PM - 12:50  PM"
			}
		],
		"Campus": "UT Chattanooga"
	},
	{
		"Title": "Control Systems",
		"Subject": "ENCH",
		"Level": "3280",
		"Hours": "3",
		"CRN": "42685",
		"Meeting": [
			{
				"days": "MWF",
				"hours": "10:00  AM - 10:50  AM"
			}
		],
		"Campus": "UT Chattanooga"
	},
	{
		"Title": "Control Systems Laboratory",
		"Subject": "ENCH",
		"Level": "3280L",
		"Hours": "1",
		"CRN": "42686",
		"Meeting": [
			{
				"days": "T",
				"hours": "06:30  PM - 09:20  PM"
			}
		],
		"Campus": "UT Chattanooga"
	},
	{
		"Title": "Chemical Process Principles",
		"Subject": "ENCH",
		"Level": "3310",
		"Hours": "3",
		"CRN": "40123",
		"Meeting": [
			{
				"days": "MWF",
				"hours": "10:00  AM - 10:50  AM"
			}
		],
		"Campus": "UT Chattanooga"
	},
	{
		"Title": "Unit Operations Laboratory",
		"Subject": "ENCH",
		"Level": "3350",
		"Hours": "1",
		"CRN": "40604",
		"Meeting": [
			{
				"days": "T",
				"hours": "12:15  PM - 03:00  PM"
			}
		],
		"Campus": "UT Chattanooga"
	},
	{
		"Title": "Sustainability Engineering",
		"Subject": "ENCH",
		"Level": "4250",
		"Hours": "3",
		"CRN": "43540",
		"Meeting": [
			{
				"days": "",
				"hours": " - "
			}
		],
		"Campus": "UTC Online"
	},
	{
		"Title": "Introduction to Chemical Engineering Design",
		"Subject": "ENCH",
		"Level": "4290",
		"Hours": "3",
		"CRN": "41023",
		"Meeting": [
			{
				"days": "MW",
				"hours": "02:00  PM - 03:15  PM"
			}
		],
		"Campus": "UT Chattanooga"
	},
	{
		"Title": "Fractional Distillation Separation Processes",
		"Subject": "ENCH",
		"Level": "4320",
		"Hours": "3",
		"CRN": "40124",
		"Meeting": [
			{
				"days": "TT",
				"hours": "09:25  AM - 10:40  AM"
			}
		],
		"Campus": "UT Chattanooga"
	},
	{
		"Title": "Chemical Process Operations",
		"Subject": "ENCH",
		"Level": "4330",
		"Hours": "3",
		"CRN": "40125",
		"Meeting": [
			{
				"days": "TT",
				"hours": "10:50  AM - 12:05  PM"
			}
		],
		"Campus": "UT Chattanooga"
	},
	{
		"Title": "Chemical Processes Laboratory",
		"Subject": "ENCH",
		"Level": "4350",
		"Hours": "2",
		"CRN": "40605",
		"Meeting": [
			{
				"days": "T",
				"hours": "12:15  PM - 04:20  PM"
			}
		],
		"Campus": "UT Chattanooga"
	},
	{
		"Title": "Departmental Thesis",
		"Subject": "ENCH",
		"Level": "4995R",
		"Hours": "1 TO 3",
		"CRN": "43736",
		"Meeting": [
			{
				"days": "",
				"hours": " - "
			}
		],
		"Campus": "UT Chattanooga"
	},
	{
		"Title": "Research",
		"Subject": "ENCH",
		"Level": "4997R",
		"Hours": "1 TO 9",
		"CRN": "43172",
		"Meeting": [
			{
				"days": "",
				"hours": " - "
			}
		],
		"Campus": "UT Chattanooga"
	},
	{
		"Title": "Group Studies",
		"Subject": "ENCH",
		"Level": "4999R",
		"Hours": "1",
		"CRN": "42774",
		"Meeting": [
			{
				"days": "TT",
				"hours": "05:00  PM - 06:30  PM"
			}
		],
		"Campus": "UT Chattanooga"
	},
	{
		"Title": "Group Studies",
		"Subject": "ENCH",
		"Level": "4999R",
		"Hours": "1 TO 9",
		"CRN": "43541",
		"Meeting": [
			{
				"days": "TT",
				"hours": "05:00  PM - 06:30  PM"
			}
		],
		"Campus": "UT Chattanooga"
	},
	{
		"Title": "Mass Transfer Operations",
		"Subject": "ENCH",
		"Level": "5360",
		"Hours": "3",
		"CRN": "43985",
		"Meeting": [
			{
				"days": "",
				"hours": " - "
			}
		],
		"Campus": "UT Chattanooga"
	},
	{
		"Title": " Engineering Project",
		"Subject": "ENCH",
		"Level": "5900R",
		"Hours": "3",
		"CRN": "42009",
		"Meeting": [
			{
				"days": "W",
				"hours": "03:00  PM - 05:00  PM"
			}
		],
		"Campus": "UT Chattanooga"
	},
	{
		"Title": " Special Topics in Engineering: Molecular Dynamics Simulations",
		"Subject": "ENCH",
		"Level": "5910R",
		"Hours": "1 TO 4",
		"CRN": "43964",
		"Meeting": [
			{
				"days": "",
				"hours": " - "
			}
		],
		"Campus": "UT Chattanooga"
	},
	{
		"Title": " Thesis",
		"Subject": "ENCH",
		"Level": "5999R",
		"Hours": "1 TO 6",
		"CRN": "43107",
		"Meeting": [
			{
				"days": "",
				"hours": " - "
			}
		],
		"Campus": "UT Chattanooga"
	},
	{
		"Title": "Doctoral Research",
		"Subject": "ENCH",
		"Level": "7950R",
		"Hours": "6",
		"CRN": "43986",
		"Meeting": [
			{
				"days": "",
				"hours": " - "
			}
		],
		"Campus": "UT Chattanooga"
	},
	{
		"Title": "Doctoral Research",
		"Subject": "ENCH",
		"Level": "7950R",
		"Hours": "3",
		"CRN": "44003",
		"Meeting": [
			{
				"days": "",
				"hours": " - "
			}
		],
		"Campus": "UT Chattanooga"
	}
]