[
	{
		"Title": "Digital Logic and Introduction to Computer Hardware",
		"Subject": "CPEN",
		"Level": "3700",
		"Hours": "4",
		"CRN": "40489",
		"Meeting": [
			{
				"days": "TT",
				"hours": "09:25  AM - 10:40  AM"
			},
			{
				"days": "T",
				"hours": "03:00  PM - 04:50  PM"
			}
		],
		"Campus": "UT Chattanooga"
	},
	{
		"Title": "Digital Logic and Introduction to Computer Hardware",
		"Subject": "CPEN",
		"Level": "3700",
		"Hours": "4",
		"CRN": "42033",
		"Meeting": [
			{
				"days": "TT",
				"hours": "10:50  AM - 12:05  PM"
			},
			{
				"days": "W",
				"hours": "03:00  PM - 04:50  PM"
			}
		],
		"Campus": "UT Chattanooga"
	},
	{
		"Title": "Computer System Organization and Assembly Language Programming",
		"Subject": "CPEN",
		"Level": "3710",
		"Hours": "4",
		"CRN": "41437",
		"Meeting": [
			{
				"days": "T",
				"hours": "03:00  PM - 04:50  PM"
			},
			{
				"days": "MW",
				"hours": "03:25  PM - 04:40  PM"
			}
		],
		"Campus": "UT Chattanooga"
	},
	{
		"Title": "Interdisciplinary Design Project I",
		"Subject": "CPEN",
		"Level": "3850",
		"Hours": "3",
		"CRN": "41392",
		"Meeting": [
			{
				"days": "TT",
				"hours": "03:05  PM - 04:20  PM"
			}
		],
		"Campus": "UT Chattanooga"
	},
	{
		"Title": "Computer Architecture",
		"Subject": "CPEN",
		"Level": "4700",
		"Hours": "3",
		"CRN": "40490",
		"Meeting": [
			{
				"days": "MW",
				"hours": "02:00  PM - 03:15  PM"
			}
		],
		"Campus": "UT Chattanooga"
	}
]