[
	{
		"Title": "Step One/Step Two: Inquiry-Based Mathematics and Science Teaching",
		"Subject": "STEM",
		"Level": "1030",
		"Hours": "2",
		"CRN": "40806",
		"Meeting": [
			{
				"days": "TT",
				"hours": "01:40  PM - 02:55  PM"
			}
		],
		"Campus": "UT Chattanooga"
	},
	{
		"Title": "Step One/Step Two: Inquiry-Based Mathematics and Science Teaching",
		"Subject": "STEM",
		"Level": "1030",
		"Hours": "2",
		"CRN": "40830",
		"Meeting": [
			{
				"days": "TT",
				"hours": "09:25  AM - 10:40  AM"
			}
		],
		"Campus": "UT Chattanooga"
	},
	{
		"Title": "Knowing and Learning",
		"Subject": "STEM",
		"Level": "2010",
		"Hours": "3",
		"CRN": "40807",
		"Meeting": [
			{
				"days": "TT",
				"hours": "10:50  AM - 12:05  PM"
			}
		],
		"Campus": "UT Chattanooga"
	},
	{
		"Title": "Classroom Interactions",
		"Subject": "STEM",
		"Level": "2020",
		"Hours": "3",
		"CRN": "40808",
		"Meeting": [
			{
				"days": "TT",
				"hours": "12:15  PM - 01:30  PM"
			}
		],
		"Campus": "UT Chattanooga"
	},
	{
		"Title": "Perspectives on Science and Mathematics",
		"Subject": "STEM",
		"Level": "3010",
		"Hours": "3",
		"CRN": "41831",
		"Meeting": [
			{
				"days": "TT",
				"hours": "10:50  AM - 12:05  PM"
			}
		],
		"Campus": "UT Chattanooga"
	},
	{
		"Title": "Research Methods in STEM",
		"Subject": "STEM",
		"Level": "3020",
		"Hours": "3",
		"CRN": "40809",
		"Meeting": [
			{
				"days": "W",
				"hours": "09:00  AM - 11:00  AM"
			},
			{
				"days": "T",
				"hours": "01:40  PM - 04:10  PM"
			}
		],
		"Campus": "UT Chattanooga"
	},
	{
		"Title": "Project-Based Instruction",
		"Subject": "STEM",
		"Level": "4010",
		"Hours": "3",
		"CRN": "40810",
		"Meeting": [
			{
				"days": "T",
				"hours": "05:00  PM - 07:30  PM"
			}
		],
		"Campus": "UT Chattanooga"
	},
	{
		"Title": "Apprentice Teaching",
		"Subject": "STEM",
		"Level": "4020",
		"Hours": "6 OR 12",
		"CRN": "41808",
		"Meeting": [
			{
				"days": "T",
				"hours": "05:00  PM - 07:00  PM"
			}
		],
		"Campus": "UT Chattanooga"
	},
	{
		"Title": "Group Studies",
		"Subject": "STEM",
		"Level": "4999R",
		"Hours": "1",
		"CRN": "43598",
		"Meeting": [
			{
				"days": "",
				"hours": " - "
			}
		],
		"Campus": "UT Chattanooga"
	}
]