[
	{
		"Title": "African-American Literature",
		"Subject": "HUM",
		"Level": "2520",
		"Hours": "3",
		"CRN": "40290",
		"Meeting": [
			{
				"days": "TT",
				"hours": "09:25  AM - 10:40  AM"
			}
		],
		"Campus": "UT Chattanooga"
	},
	{
		"Title": "Senior Capstone Project",
		"Subject": "HUM",
		"Level": "4960",
		"Hours": "1",
		"CRN": "41331",
		"Meeting": [
			{
				"days": "",
				"hours": " - "
			}
		],
		"Campus": "UT Chattanooga"
	},
	{
		"Title": "Senior Capstone Project",
		"Subject": "HUM",
		"Level": "4960",
		"Hours": "1",
		"CRN": "43691",
		"Meeting": [
			{
				"days": "",
				"hours": " - "
			}
		],
		"Campus": "UT Chattanooga"
	},
	{
		"Title": "Senior Capstone Project",
		"Subject": "HUM",
		"Level": "4960",
		"Hours": "1",
		"CRN": "43829",
		"Meeting": [
			{
				"days": "",
				"hours": " - "
			}
		],
		"Campus": "UT Chattanooga"
	},
	{
		"Title": "Departmental Thesis",
		"Subject": "HUM",
		"Level": "4995R",
		"Hours": "1 TO 3",
		"CRN": "43774",
		"Meeting": [
			{
				"days": "",
				"hours": " - "
			}
		],
		"Campus": "UT Chattanooga"
	},
	{
		"Title": "Departmental Thesis",
		"Subject": "HUM",
		"Level": "4995R",
		"Hours": "1 TO 3",
		"CRN": "43775",
		"Meeting": [
			{
				"days": "",
				"hours": " - "
			}
		],
		"Campus": "UT Chattanooga"
	}
]