[
	{
		"Title": "Principles of Economics: Macroeconomics",
		"Subject": "ECON",
		"Level": "1010",
		"Hours": "3",
		"CRN": "42732",
		"Meeting": [
			{
				"days": "",
				"hours": " - "
			}
		],
		"Campus": "UT Chattanooga"
	},
	{
		"Title": "Principles of Economics: Macroeconomics",
		"Subject": "ECON",
		"Level": "1010",
		"Hours": "3",
		"CRN": "41447",
		"Meeting": [
			{
				"days": "",
				"hours": " - "
			}
		],
		"Campus": "UT Chattanooga"
	},
	{
		"Title": "Principles of Economics: Macroeconomics",
		"Subject": "ECON",
		"Level": "1010",
		"Hours": "3",
		"CRN": "41357",
		"Meeting": [
			{
				"days": "",
				"hours": " - "
			}
		],
		"Campus": "UT Chattanooga"
	},
	{
		"Title": "Principles of Economics: Macroeconomics",
		"Subject": "ECON",
		"Level": "1010",
		"Hours": "3",
		"CRN": "40113",
		"Meeting": [
			{
				"days": "",
				"hours": " - "
			}
		],
		"Campus": "UT Chattanooga"
	},
	{
		"Title": "Principles of Economics: Macroeconomics",
		"Subject": "ECON",
		"Level": "1010",
		"Hours": "3",
		"CRN": "40115",
		"Meeting": [
			{
				"days": "T",
				"hours": "05:30  PM - 08:00  PM"
			}
		],
		"Campus": "UT Chattanooga"
	},
	{
		"Title": "Principles of Economics: Macroeconomics",
		"Subject": "ECON",
		"Level": "1010",
		"Hours": "3",
		"CRN": "40114",
		"Meeting": [
			{
				"days": "",
				"hours": " - "
			}
		],
		"Campus": "UT Chattanooga"
	},
	{
		"Title": "Principles of Economics: Macroeconomics",
		"Subject": "ECON",
		"Level": "1010",
		"Hours": "3",
		"CRN": "41538",
		"Meeting": [
			{
				"days": "",
				"hours": " - "
			}
		],
		"Campus": "UT Chattanooga"
	},
	{
		"Title": "Principles of Economics: Macroeconomics",
		"Subject": "ECON",
		"Level": "1010",
		"Hours": "3",
		"CRN": "42849",
		"Meeting": [
			{
				"days": "",
				"hours": " - "
			}
		],
		"Campus": "UT Chattanooga"
	},
	{
		"Title": "Principles of Economics: Microeconomics",
		"Subject": "ECON",
		"Level": "1020",
		"Hours": "3",
		"CRN": "41883",
		"Meeting": [
			{
				"days": "",
				"hours": " - "
			}
		],
		"Campus": "UT Chattanooga"
	},
	{
		"Title": "Principles of Economics: Microeconomics",
		"Subject": "ECON",
		"Level": "1020",
		"Hours": "3",
		"CRN": "41358",
		"Meeting": [
			{
				"days": "M",
				"hours": "05:30  PM - 08:00  PM"
			}
		],
		"Campus": "UT Chattanooga"
	},
	{
		"Title": "Principles of Economics: Microeconomics",
		"Subject": "ECON",
		"Level": "1020",
		"Hours": "3",
		"CRN": "41038",
		"Meeting": [
			{
				"days": "",
				"hours": " - "
			}
		],
		"Campus": "UT Chattanooga"
	},
	{
		"Title": "Principles of Economics: Microeconomics",
		"Subject": "ECON",
		"Level": "1020",
		"Hours": "3",
		"CRN": "40116",
		"Meeting": [
			{
				"days": "",
				"hours": " - "
			}
		],
		"Campus": "UT Chattanooga"
	},
	{
		"Title": "Principles of Economics: Microeconomics",
		"Subject": "ECON",
		"Level": "1020",
		"Hours": "3",
		"CRN": "40711",
		"Meeting": [
			{
				"days": "",
				"hours": " - "
			}
		],
		"Campus": "UT Chattanooga"
	},
	{
		"Title": "Public Finance",
		"Subject": "ECON",
		"Level": "3060",
		"Hours": "3",
		"CRN": "43287",
		"Meeting": [
			{
				"days": "",
				"hours": " - "
			}
		],
		"Campus": "UT Chattanooga"
	},
	{
		"Title": "Labor Economics and the Labor Process",
		"Subject": "ECON",
		"Level": "3170",
		"Hours": "3",
		"CRN": "43288",
		"Meeting": [
			{
				"days": "",
				"hours": " - "
			}
		],
		"Campus": "UT Chattanooga"
	},
	{
		"Title": "Intermediate Microeconomic Theory",
		"Subject": "ECON",
		"Level": "3240",
		"Hours": "3",
		"CRN": "40117",
		"Meeting": [
			{
				"days": "MW",
				"hours": "03:25  PM - 04:40  PM"
			}
		],
		"Campus": "UT Chattanooga"
	},
	{
		"Title": "Experiential Learning: Academic Internship Program",
		"Subject": "ECON",
		"Level": "3900R",
		"Hours": "3",
		"CRN": "43828",
		"Meeting": [
			{
				"days": "",
				"hours": " - "
			}
		],
		"Campus": "UTC Online"
	},
	{
		"Title": "Health Care Economics",
		"Subject": "ECON",
		"Level": "4370",
		"Hours": "3",
		"CRN": "43289",
		"Meeting": [
			{
				"days": "TT",
				"hours": "03:05  PM - 04:20  PM"
			}
		],
		"Campus": "UT Chattanooga"
	},
	{
		"Title": "Introduction to Econometrics",
		"Subject": "ECON",
		"Level": "4600",
		"Hours": "3",
		"CRN": "41542",
		"Meeting": [
			{
				"days": "TT",
				"hours": "01:40  PM - 02:55  PM"
			}
		],
		"Campus": "UT Chattanooga"
	},
	{
		"Title": "Economics for Managers",
		"Subject": "ECON",
		"Level": "5015",
		"Hours": "3",
		"CRN": "43290",
		"Meeting": [
			{
				"days": "",
				"hours": " - "
			}
		],
		"Campus": "UTC Online"
	}
]