[
	{
		"Title": "Introduction to Computing ",
		"Subject": "CPSC",
		"Level": "1000",
		"Hours": "3",
		"CRN": "40477",
		"Meeting": [
			{
				"days": "",
				"hours": " - "
			}
		],
		"Campus": "UTC Online"
	},
	{
		"Title": "Introduction to Computing ",
		"Subject": "CPSC",
		"Level": "1000",
		"Hours": "3",
		"CRN": "40478",
		"Meeting": [
			{
				"days": "",
				"hours": " - "
			}
		],
		"Campus": "UTC Online"
	},
	{
		"Title": "Introduction to Computing ",
		"Subject": "CPSC",
		"Level": "1000",
		"Hours": "3",
		"CRN": "40479",
		"Meeting": [
			{
				"days": "",
				"hours": " - "
			}
		],
		"Campus": "UTC Online"
	},
	{
		"Title": "Introduction to Computing ",
		"Subject": "CPSC",
		"Level": "1000",
		"Hours": "3",
		"CRN": "40884",
		"Meeting": [
			{
				"days": "",
				"hours": " - "
			}
		],
		"Campus": "UTC Online"
	},
	{
		"Title": "Introduction to Computing ",
		"Subject": "CPSC",
		"Level": "1000",
		"Hours": "3",
		"CRN": "40885",
		"Meeting": [
			{
				"days": "",
				"hours": " - "
			}
		],
		"Campus": "UTC Online"
	},
	{
		"Title": "Introduction to Computing ",
		"Subject": "CPSC",
		"Level": "1000",
		"Hours": "3",
		"CRN": "41097",
		"Meeting": [
			{
				"days": "",
				"hours": " - "
			}
		],
		"Campus": "UTC Online"
	},
	{
		"Title": "Fundamentals of Computer Science",
		"Subject": "CPSC",
		"Level": "1100",
		"Hours": "4",
		"CRN": "40895",
		"Meeting": [
			{
				"days": "W",
				"hours": "12:00  PM - 01:50  PM"
			}
		],
		"Campus": "UT Chattanooga"
	},
	{
		"Title": "Fundamentals of Computer Science",
		"Subject": "CPSC",
		"Level": "1100",
		"Hours": "4",
		"CRN": "40590",
		"Meeting": [
			{
				"days": "MWF",
				"hours": "09:00  AM - 09:50  AM"
			},
			{
				"days": "T",
				"hours": "03:00  PM - 04:50  PM"
			}
		],
		"Campus": "UT Chattanooga"
	},
	{
		"Title": "Fundamentals of Computer Science",
		"Subject": "CPSC",
		"Level": "1100",
		"Hours": "4",
		"CRN": "40480",
		"Meeting": [
			{
				"days": "W",
				"hours": "01:00  PM - 02:50  PM"
			},
			{
				"days": "TT",
				"hours": "01:40  PM - 02:55  PM"
			}
		],
		"Campus": "UT Chattanooga"
	},
	{
		"Title": "Fundamentals of Computer Science",
		"Subject": "CPSC",
		"Level": "1100",
		"Hours": "4",
		"CRN": "40561",
		"Meeting": [
			{
				"days": "MWF",
				"hours": "10:00  AM - 10:50  AM"
			},
			{
				"days": "M",
				"hours": "01:00  PM - 02:50  PM"
			}
		],
		"Campus": "UT Chattanooga"
	},
	{
		"Title": "Fundamentals of Computer Science",
		"Subject": "CPSC",
		"Level": "1100",
		"Hours": "4",
		"CRN": "42219",
		"Meeting": [
			{
				"days": "MW",
				"hours": "05:30  PM - 07:40  PM"
			}
		],
		"Campus": "UT Chattanooga"
	},
	{
		"Title": "Fundamentals of Computer Science",
		"Subject": "CPSC",
		"Level": "1100",
		"Hours": "4",
		"CRN": "41502",
		"Meeting": [
			{
				"days": "MWF",
				"hours": "11:00  AM - 11:50  AM"
			},
			{
				"days": "T",
				"hours": "03:00  PM - 04:50  PM"
			}
		],
		"Campus": "UT Chattanooga"
	},
	{
		"Title": "Data Structures and Program Design",
		"Subject": "CPSC",
		"Level": "1110",
		"Hours": "4",
		"CRN": "40481",
		"Meeting": [
			{
				"days": "MWF",
				"hours": "11:00  AM - 11:50  AM"
			},
			{
				"days": "T",
				"hours": "02:00  PM - 03:50  PM"
			}
		],
		"Campus": "UT Chattanooga"
	},
	{
		"Title": "Data Structures and Program Design",
		"Subject": "CPSC",
		"Level": "1110",
		"Hours": "4",
		"CRN": "42220",
		"Meeting": [
			{
				"days": "T",
				"hours": "10:00  AM - 11:50  AM"
			},
			{
				"days": "MW",
				"hours": "02:00  PM - 03:15  PM"
			}
		],
		"Campus": "UT Chattanooga"
	},
	{
		"Title": "Data Structures and Program Design",
		"Subject": "CPSC",
		"Level": "1110",
		"Hours": "4",
		"CRN": "41227",
		"Meeting": [
			{
				"days": "T",
				"hours": "10:00  AM - 11:50  AM"
			},
			{
				"days": "MWF",
				"hours": "11:00  AM - 11:50  AM"
			}
		],
		"Campus": "UT Chattanooga"
	},
	{
		"Title": "Software Design and Development",
		"Subject": "CPSC",
		"Level": "2100",
		"Hours": "3",
		"CRN": "40897",
		"Meeting": [
			{
				"days": "",
				"hours": " - "
			}
		],
		"Campus": "UT Chattanooga"
	},
	{
		"Title": "Software Design and Development",
		"Subject": "CPSC",
		"Level": "2100",
		"Hours": "3",
		"CRN": "40675",
		"Meeting": [
			{
				"days": "TT",
				"hours": "12:15  PM - 01:30  PM"
			}
		],
		"Campus": "UT Chattanooga"
	},
	{
		"Title": "Introduction to Operating Systems",
		"Subject": "CPSC",
		"Level": "2800",
		"Hours": "3",
		"CRN": "40813",
		"Meeting": [
			{
				"days": "T",
				"hours": "01:40  PM - 02:55  PM"
			},
			{
				"days": "T",
				"hours": "01:40  PM - 02:55  PM"
			},
			{
				"days": "T",
				"hours": "01:40  PM - 02:55  PM"
			},
			{
				"days": "",
				"hours": " - "
			}
		],
		"Campus": "UTC Online"
	},
	{
		"Title": "Introduction to Operating Systems",
		"Subject": "CPSC",
		"Level": "2800",
		"Hours": "3",
		"CRN": "40676",
		"Meeting": [
			{
				"days": "T",
				"hours": "01:40  PM - 02:55  PM"
			},
			{
				"days": "T",
				"hours": "01:40  PM - 02:55  PM"
			},
			{
				"days": "T",
				"hours": "01:40  PM - 02:55  PM"
			},
			{
				"days": "",
				"hours": " - "
			}
		],
		"Campus": "UTC Online"
	},
	{
		"Title": "Algorithm Analysis and Advanced Data Structures",
		"Subject": "CPSC",
		"Level": "3200",
		"Hours": "3",
		"CRN": "40482",
		"Meeting": [
			{
				"days": "MW",
				"hours": "12:00  PM - 01:15  PM"
			}
		],
		"Campus": "UT Chattanooga"
	},
	{
		"Title": "File and Database Processing",
		"Subject": "CPSC",
		"Level": "3220",
		"Hours": "3",
		"CRN": "40483",
		"Meeting": [
			{
				"days": "TT",
				"hours": "12:15  PM - 01:30  PM"
			}
		],
		"Campus": "UT Chattanooga"
	},
	{
		"Title": "File and Database Processing",
		"Subject": "CPSC",
		"Level": "3220",
		"Hours": "3",
		"CRN": "40961",
		"Meeting": [
			{
				"days": "TT",
				"hours": "10:50  AM - 12:05  PM"
			}
		],
		"Campus": "UT Chattanooga"
	},
	{
		"Title": "Principles of Information Security and Assurance",
		"Subject": "CPSC",
		"Level": "3600",
		"Hours": "3",
		"CRN": "41436",
		"Meeting": [
			{
				"days": "",
				"hours": " - "
			}
		],
		"Campus": "UTC Online"
	},
	{
		"Title": "Ethical and Social Issues in Computing",
		"Subject": "CPSC",
		"Level": "3610",
		"Hours": "3",
		"CRN": "40484",
		"Meeting": [
			{
				"days": "TT",
				"hours": "10:50  AM - 12:05  PM"
			}
		],
		"Campus": "UT Chattanooga"
	},
	{
		"Title": "Ethical and Social Issues in Computing",
		"Subject": "CPSC",
		"Level": "3610",
		"Hours": "3",
		"CRN": "40708",
		"Meeting": [
			{
				"days": "TT",
				"hours": "09:25  AM - 10:40  AM"
			}
		],
		"Campus": "UT Chattanooga"
	},
	{
		"Title": "Computer Science Internship",
		"Subject": "CPSC",
		"Level": "3920R",
		"Hours": "1 TO 3",
		"CRN": "43269",
		"Meeting": [
			{
				"days": "",
				"hours": " - "
			}
		],
		"Campus": "UT Chattanooga"
	},
	{
		"Title": "Survey of Programming Languages",
		"Subject": "CPSC",
		"Level": "4100",
		"Hours": "3",
		"CRN": "43270",
		"Meeting": [
			{
				"days": "TT",
				"hours": "01:40  PM - 02:55  PM"
			}
		],
		"Campus": "UT Chattanooga"
	},
	{
		"Title": "Programming Languages for Advanced Data",
		"Subject": "CPSC",
		"Level": "4180",
		"Hours": "3",
		"CRN": "42589",
		"Meeting": [
			{
				"days": "MW",
				"hours": "06:00  PM - 07:15  PM"
			}
		],
		"Campus": "UT Chattanooga"
	},
	{
		"Title": "Databases and Security",
		"Subject": "CPSC",
		"Level": "4270",
		"Hours": "3",
		"CRN": "41424",
		"Meeting": [
			{
				"days": "TT",
				"hours": "12:15  PM - 01:30  PM"
			}
		],
		"Campus": "UT Chattanooga"
	},
	{
		"Title": "Computer Networks",
		"Subject": "CPSC",
		"Level": "4550",
		"Hours": "3",
		"CRN": "40485",
		"Meeting": [
			{
				"days": "",
				"hours": " - "
			}
		],
		"Campus": "UTC Online"
	},
	{
		"Title": "System Vulnerability Analysis and Auditing",
		"Subject": "CPSC",
		"Level": "4660",
		"Hours": "3",
		"CRN": "40962",
		"Meeting": [
			{
				"days": "MW",
				"hours": "12:00  PM - 01:15  PM"
			}
		],
		"Campus": "UT Chattanooga"
	},
	{
		"Title": "Software Engineering",
		"Subject": "CPSC",
		"Level": "4900",
		"Hours": "3",
		"CRN": "40486",
		"Meeting": [
			{
				"days": "TT",
				"hours": "09:25  AM - 10:40  AM"
			}
		],
		"Campus": "UT Chattanooga"
	},
	{
		"Title": "Software Engineering",
		"Subject": "CPSC",
		"Level": "4900",
		"Hours": "3",
		"CRN": "43033",
		"Meeting": [
			{
				"days": "TT",
				"hours": "12:15  PM - 01:30  PM"
			}
		],
		"Campus": "UT Chattanooga"
	},
	{
		"Title": "Senior Capstone Project                         ",
		"Subject": "CPSC",
		"Level": "4910",
		"Hours": "3",
		"CRN": "40886",
		"Meeting": [
			{
				"days": "TT",
				"hours": "01:40  PM - 02:55  PM"
			}
		],
		"Campus": "UT Chattanooga"
	},
	{
		"Title": "Departmental Thesis",
		"Subject": "CPSC",
		"Level": "4995R",
		"Hours": "1 TO 3",
		"CRN": "43733",
		"Meeting": [
			{
				"days": "",
				"hours": " - "
			}
		],
		"Campus": "UT Chattanooga"
	},
	{
		"Title": "Departmental Thesis",
		"Subject": "CPSC",
		"Level": "4995R",
		"Hours": "1 TO 3",
		"CRN": "43761",
		"Meeting": [
			{
				"days": "",
				"hours": " - "
			}
		],
		"Campus": "UT Chattanooga"
	},
	{
		"Title": "Departmental Thesis",
		"Subject": "CPSC",
		"Level": "4995R",
		"Hours": "1 TO 3",
		"CRN": "43762",
		"Meeting": [
			{
				"days": "",
				"hours": " - "
			}
		],
		"Campus": "UT Chattanooga"
	},
	{
		"Title": "Departmental Thesis",
		"Subject": "CPSC",
		"Level": "4995R",
		"Hours": "1 TO 3",
		"CRN": "43763",
		"Meeting": [
			{
				"days": "",
				"hours": " - "
			}
		],
		"Campus": "UT Chattanooga"
	},
	{
		"Title": "Fundamentals of Computer Science",
		"Subject": "CPSC",
		"Level": "5000",
		"Hours": "3",
		"CRN": "40700",
		"Meeting": [
			{
				"days": "W",
				"hours": "07:00  PM - 09:30  PM"
			}
		],
		"Campus": "UT Chattanooga"
	},
	{
		"Title": "Fundamentals of Computer Science",
		"Subject": "CPSC",
		"Level": "5000",
		"Hours": "3",
		"CRN": "43085",
		"Meeting": [
			{
				"days": "",
				"hours": " - "
			}
		],
		"Campus": "UTC Online"
	},
	{
		"Title": "Computing Systems",
		"Subject": "CPSC",
		"Level": "5020",
		"Hours": "3",
		"CRN": "43888",
		"Meeting": [
			{
				"days": "",
				"hours": " - "
			}
		],
		"Campus": "UTC Online"
	},
	{
		"Title": "Theory of Computer Programming Languages",
		"Subject": "CPSC",
		"Level": "5100",
		"Hours": "3",
		"CRN": "40487",
		"Meeting": [
			{
				"days": "",
				"hours": " - "
			}
		],
		"Campus": "UTC Online"
	},
	{
		"Title": "Programming Languages for Business Data Analytics",
		"Subject": "CPSC",
		"Level": "5175",
		"Hours": "3",
		"CRN": "43889",
		"Meeting": [
			{
				"days": "",
				"hours": " - "
			}
		],
		"Campus": "UTC Online"
	},
	{
		"Title": "Programming Languages for Advanced Data Analytics",
		"Subject": "CPSC",
		"Level": "5180",
		"Hours": "3",
		"CRN": "42590",
		"Meeting": [
			{
				"days": "MW",
				"hours": "06:00  PM - 07:15  PM"
			}
		],
		"Campus": "UT Chattanooga"
	},
	{
		"Title": "Data Visualization for Business",
		"Subject": "CPSC",
		"Level": "5185",
		"Hours": "3",
		"CRN": "43890",
		"Meeting": [
			{
				"days": "",
				"hours": " - "
			}
		],
		"Campus": "UTC Online"
	},
	{
		"Title": "Design and Analysis of Computer Algorithms",
		"Subject": "CPSC",
		"Level": "5210",
		"Hours": "3",
		"CRN": "40488",
		"Meeting": [
			{
				"days": "TT",
				"hours": "05:30  PM - 06:45  PM"
			}
		],
		"Campus": "UT Chattanooga"
	},
	{
		"Title": "Advanced Database and Database Security",
		"Subject": "CPSC",
		"Level": "5270",
		"Hours": "3",
		"CRN": "41445",
		"Meeting": [
			{
				"days": "TT",
				"hours": "10:50  AM - 12:05  PM"
			}
		],
		"Campus": "UT Chattanooga"
	},
	{
		"Title": "Advanced Computer Networks",
		"Subject": "CPSC",
		"Level": "5590",
		"Hours": "3",
		"CRN": "41444",
		"Meeting": [
			{
				"days": "",
				"hours": " - "
			}
		],
		"Campus": "UTC Online"
	},
	{
		"Title": "System Vulnerability Analysis and Auditing",
		"Subject": "CPSC",
		"Level": "5660",
		"Hours": "3",
		"CRN": "40963",
		"Meeting": [
			{
				"days": "MW",
				"hours": "12:00  PM - 01:15  PM"
			}
		],
		"Campus": "UT Chattanooga"
	},
	{
		"Title": "Computer Forensics",
		"Subject": "CPSC",
		"Level": "5680",
		"Hours": "3",
		"CRN": "41099",
		"Meeting": [
			{
				"days": "",
				"hours": " - "
			}
		],
		"Campus": "UTC Online"
	},
	{
		"Title": "Project",
		"Subject": "CPSC",
		"Level": "5900",
		"Hours": "3",
		"CRN": "41060",
		"Meeting": [
			{
				"days": "",
				"hours": " - "
			}
		],
		"Campus": "UT Chattanooga"
	},
	{
		"Title": "Project",
		"Subject": "CPSC",
		"Level": "5900",
		"Hours": "3",
		"CRN": "43109",
		"Meeting": [
			{
				"days": "",
				"hours": " - "
			}
		],
		"Campus": "UT Chattanooga"
	},
	{
		"Title": "Project",
		"Subject": "CPSC",
		"Level": "5900",
		"Hours": "3",
		"CRN": "43955",
		"Meeting": [
			{
				"days": "",
				"hours": " - "
			}
		],
		"Campus": "UT Chattanooga"
	},
	{
		"Title": "Project",
		"Subject": "CPSC",
		"Level": "5900",
		"Hours": "3",
		"CRN": "44006",
		"Meeting": [
			{
				"days": "",
				"hours": " - "
			}
		],
		"Campus": "UT Chattanooga"
	},
	{
		"Title": "Graduate Internship in Computer Science",
		"Subject": "CPSC",
		"Level": "5920R",
		"Hours": "1",
		"CRN": "43125",
		"Meeting": [
			{
				"days": "",
				"hours": " - "
			}
		],
		"Campus": "UT Chattanooga"
	},
	{
		"Title": "Individual Studies",
		"Subject": "CPSC",
		"Level": "5997R",
		"Hours": "1 TO 9",
		"CRN": "42858",
		"Meeting": [
			{
				"days": "",
				"hours": " - "
			}
		],
		"Campus": "UT Chattanooga"
	},
	{
		"Title": "Individual Studies",
		"Subject": "CPSC",
		"Level": "5997R",
		"Hours": "1 TO 9",
		"CRN": "43078",
		"Meeting": [
			{
				"days": "",
				"hours": " - "
			}
		],
		"Campus": "UT Chattanooga"
	},
	{
		"Title": "Individual Studies",
		"Subject": "CPSC",
		"Level": "5997R",
		"Hours": "1 TO 9",
		"CRN": "43084",
		"Meeting": [
			{
				"days": "",
				"hours": " - "
			}
		],
		"Campus": "UT Chattanooga"
	},
	{
		"Title": "Individual Studies",
		"Subject": "CPSC",
		"Level": "5997R",
		"Hours": "1 TO 9",
		"CRN": "43097",
		"Meeting": [
			{
				"days": "",
				"hours": " - "
			}
		],
		"Campus": "UT Chattanooga"
	},
	{
		"Title": "Thesis",
		"Subject": "CPSC",
		"Level": "5999R",
		"Hours": "1 TO 6",
		"CRN": "42940",
		"Meeting": [
			{
				"days": "",
				"hours": " - "
			}
		],
		"Campus": "UT Chattanooga"
	},
	{
		"Title": "Thesis",
		"Subject": "CPSC",
		"Level": "5999R",
		"Hours": "1 TO 6",
		"CRN": "41185",
		"Meeting": [
			{
				"days": "",
				"hours": " - "
			}
		],
		"Campus": "UT Chattanooga"
	},
	{
		"Title": "Thesis",
		"Subject": "CPSC",
		"Level": "5999R",
		"Hours": "1 TO 6",
		"CRN": "43708",
		"Meeting": [
			{
				"days": "",
				"hours": " - "
			}
		],
		"Campus": "UT Chattanooga"
	},
	{
		"Title": "Thesis",
		"Subject": "CPSC",
		"Level": "5999R",
		"Hours": "1 TO 6",
		"CRN": "43151",
		"Meeting": [
			{
				"days": "",
				"hours": " - "
			}
		],
		"Campus": "UT Chattanooga"
	},
	{
		"Title": "High Performance Scientific Computing",
		"Subject": "CPSC",
		"Level": "7110",
		"Hours": "3",
		"CRN": "43271",
		"Meeting": [
			{
				"days": "MW",
				"hours": "02:00  PM - 03:15  PM"
			}
		],
		"Campus": "UT Chattanooga"
	},
	{
		"Title": "Power Electronics and Drives",
		"Subject": "CPSC",
		"Level": "7910R",
		"Hours": "3",
		"CRN": "44027",
		"Meeting": [
			{
				"days": "MW",
				"hours": "02:00  PM - 03:15  PM"
			}
		],
		"Campus": "UT Chattanooga"
	},
	{
		"Title": "Special Topics in Computer Science and Engineering",
		"Subject": "CPSC",
		"Level": "7910R",
		"Hours": "3",
		"CRN": "44028",
		"Meeting": [
			{
				"days": "MW",
				"hours": "05:15  PM - 06:30  PM"
			}
		],
		"Campus": "UT Chattanooga"
	},
	{
		"Title": "Doctoral Research",
		"Subject": "CPSC",
		"Level": "7950R",
		"Hours": "1 TO 12",
		"CRN": "42228",
		"Meeting": [
			{
				"days": "",
				"hours": " - "
			}
		],
		"Campus": "UT Chattanooga"
	},
	{
		"Title": "Doctoral Research",
		"Subject": "CPSC",
		"Level": "7950R",
		"Hours": "1 TO 12",
		"CRN": "41522",
		"Meeting": [
			{
				"days": "",
				"hours": " - "
			}
		],
		"Campus": "UT Chattanooga"
	},
	{
		"Title": "Doctoral Research",
		"Subject": "CPSC",
		"Level": "7950R",
		"Hours": "1 TO 12",
		"CRN": "41523",
		"Meeting": [
			{
				"days": "",
				"hours": " - "
			}
		],
		"Campus": "UT Chattanooga"
	},
	{
		"Title": "Doctoral Research",
		"Subject": "CPSC",
		"Level": "7950R",
		"Hours": "1 TO 12",
		"CRN": "42989",
		"Meeting": [
			{
				"days": "",
				"hours": " - "
			}
		],
		"Campus": "UT Chattanooga"
	},
	{
		"Title": "Dissertation",
		"Subject": "CPSC",
		"Level": "7999R",
		"Hours": "1 TO 12",
		"CRN": "42229",
		"Meeting": [
			{
				"days": "",
				"hours": " - "
			}
		],
		"Campus": "UT Chattanooga"
	},
	{
		"Title": "Dissertation",
		"Subject": "CPSC",
		"Level": "7999R",
		"Hours": "1 TO 12",
		"CRN": "42230",
		"Meeting": [
			{
				"days": "",
				"hours": " - "
			}
		],
		"Campus": "UT Chattanooga"
	},
	{
		"Title": "Dissertation",
		"Subject": "CPSC",
		"Level": "7999R",
		"Hours": "1 TO 12",
		"CRN": "42233",
		"Meeting": [
			{
				"days": "",
				"hours": " - "
			}
		],
		"Campus": "UT Chattanooga"
	},
	{
		"Title": "Dissertation",
		"Subject": "CPSC",
		"Level": "7999R",
		"Hours": "1 TO 12",
		"CRN": "41524",
		"Meeting": [
			{
				"days": "",
				"hours": " - "
			}
		],
		"Campus": "UT Chattanooga"
	},
	{
		"Title": "Dissertation",
		"Subject": "CPSC",
		"Level": "7999R",
		"Hours": "1 TO 12",
		"CRN": "41525",
		"Meeting": [
			{
				"days": "",
				"hours": " - "
			}
		],
		"Campus": "UT Chattanooga"
	},
	{
		"Title": "Dissertation",
		"Subject": "CPSC",
		"Level": "7999R",
		"Hours": "1 TO 12",
		"CRN": "41526",
		"Meeting": [
			{
				"days": "",
				"hours": " - "
			}
		],
		"Campus": "UT Chattanooga"
	},
	{
		"Title": "Dissertation",
		"Subject": "CPSC",
		"Level": "7999R",
		"Hours": "1 TO 12",
		"CRN": "43163",
		"Meeting": [
			{
				"days": "",
				"hours": " - "
			}
		],
		"Campus": "UT Chattanooga"
	},
	{
		"Title": "Dissertation",
		"Subject": "CPSC",
		"Level": "7999R",
		"Hours": "1 TO 12",
		"CRN": "43704",
		"Meeting": [
			{
				"days": "",
				"hours": " - "
			}
		],
		"Campus": "UT Chattanooga"
	}
]