[
	{
		"Title": "Accounting and Financial Reporting: A User's Perspective",
		"Subject": "ACC",
		"Level": "2000",
		"Hours": "3",
		"CRN": "40243",
		"Meeting": [
			{
				"days": "",
				"hours": " - "
			}
		],
		"Campus": "UTC Online"
	},
	{
		"Title": "Principles of Accounting I",
		"Subject": "ACC",
		"Level": "2010",
		"Hours": "3",
		"CRN": "42877",
		"Meeting": [
			{
				"days": "W",
				"hours": "05:30  PM - 08:00  PM"
			}
		],
		"Campus": "UT Chattanooga"
	},
	{
		"Title": "Principles of Accounting I",
		"Subject": "ACC",
		"Level": "2010",
		"Hours": "3",
		"CRN": "41189",
		"Meeting": [
			{
				"days": "",
				"hours": " - "
			}
		],
		"Campus": "UT Chattanooga"
	},
	{
		"Title": "Principles of Accounting I",
		"Subject": "ACC",
		"Level": "2010",
		"Hours": "3",
		"CRN": "41190",
		"Meeting": [
			{
				"days": "T",
				"hours": "05:30  PM - 08:00  PM"
			}
		],
		"Campus": "UT Chattanooga"
	},
	{
		"Title": "Principles of Accounting I",
		"Subject": "ACC",
		"Level": "2010",
		"Hours": "3",
		"CRN": "40244",
		"Meeting": [
			{
				"days": "",
				"hours": " - "
			}
		],
		"Campus": "UT Chattanooga"
	},
	{
		"Title": "Principles of Accounting I",
		"Subject": "ACC",
		"Level": "2010",
		"Hours": "3",
		"CRN": "40537",
		"Meeting": [
			{
				"days": "",
				"hours": " - "
			}
		],
		"Campus": "UT Chattanooga"
	},
	{
		"Title": "Principles of Accounting I",
		"Subject": "ACC",
		"Level": "2010",
		"Hours": "3",
		"CRN": "41216",
		"Meeting": [
			{
				"days": "",
				"hours": " - "
			}
		],
		"Campus": "UT Chattanooga"
	},
	{
		"Title": "Principles of Accounting I",
		"Subject": "ACC",
		"Level": "2010",
		"Hours": "3",
		"CRN": "40690",
		"Meeting": [
			{
				"days": "TT",
				"hours": "09:25  AM - 10:40  AM"
			}
		],
		"Campus": "UT Chattanooga"
	},
	{
		"Title": "Principles of Accounting I",
		"Subject": "ACC",
		"Level": "2010",
		"Hours": "3",
		"CRN": "41255",
		"Meeting": [
			{
				"days": "",
				"hours": " - "
			}
		],
		"Campus": "UT Chattanooga"
	},
	{
		"Title": "Principles of Accounting I",
		"Subject": "ACC",
		"Level": "2010",
		"Hours": "3",
		"CRN": "40911",
		"Meeting": [
			{
				"days": "TT",
				"hours": "01:40  PM - 02:55  PM"
			}
		],
		"Campus": "UT Chattanooga"
	},
	{
		"Title": "Principles of Accounting I",
		"Subject": "ACC",
		"Level": "2010",
		"Hours": "3",
		"CRN": "41069",
		"Meeting": [
			{
				"days": "T",
				"hours": "05:30  PM - 08:00  PM"
			}
		],
		"Campus": "UT Chattanooga"
	},
	{
		"Title": "Principles of Accounting I",
		"Subject": "ACC",
		"Level": "2010",
		"Hours": "3",
		"CRN": "43499",
		"Meeting": [
			{
				"days": "",
				"hours": " - "
			}
		],
		"Campus": "UT Chattanooga"
	},
	{
		"Title": "Principles of Accounting II",
		"Subject": "ACC",
		"Level": "2020",
		"Hours": "3",
		"CRN": "40668",
		"Meeting": [
			{
				"days": "TT",
				"hours": "01:40  PM - 02:55  PM"
			}
		],
		"Campus": "UT Chattanooga"
	},
	{
		"Title": "Principles of Accounting II",
		"Subject": "ACC",
		"Level": "2020",
		"Hours": "3",
		"CRN": "40245",
		"Meeting": [
			{
				"days": "TT",
				"hours": "03:05  PM - 04:20  PM"
			}
		],
		"Campus": "UT Chattanooga"
	},
	{
		"Title": "Principles of Accounting II",
		"Subject": "ACC",
		"Level": "2020",
		"Hours": "3",
		"CRN": "41217",
		"Meeting": [
			{
				"days": "",
				"hours": " - "
			}
		],
		"Campus": "UT Chattanooga"
	},
	{
		"Title": "Principles of Accounting II",
		"Subject": "ACC",
		"Level": "2020",
		"Hours": "3",
		"CRN": "43023",
		"Meeting": [
			{
				"days": "M",
				"hours": "05:30  PM - 08:00  PM"
			}
		],
		"Campus": "UT Chattanooga"
	},
	{
		"Title": "Principles of Accounting II",
		"Subject": "ACC",
		"Level": "2020",
		"Hours": "3",
		"CRN": "41074",
		"Meeting": [
			{
				"days": "",
				"hours": " - "
			}
		],
		"Campus": "UT Chattanooga"
	},
	{
		"Title": "Principles of Accounting II",
		"Subject": "ACC",
		"Level": "2020",
		"Hours": "3",
		"CRN": "41348",
		"Meeting": [
			{
				"days": "MWF",
				"hours": "11:00  AM - 11:50  AM"
			}
		],
		"Campus": "UT Chattanooga"
	},
	{
		"Title": "Intermediate Accounting I",
		"Subject": "ACC",
		"Level": "3000",
		"Hours": "3",
		"CRN": "40246",
		"Meeting": [
			{
				"days": "TT",
				"hours": "03:05  PM - 04:20  PM"
			}
		],
		"Campus": "UT Chattanooga"
	},
	{
		"Title": "Intermediate Accounting I",
		"Subject": "ACC",
		"Level": "3000",
		"Hours": "3",
		"CRN": "41963",
		"Meeting": [
			{
				"days": "",
				"hours": " - "
			}
		],
		"Campus": "UT Chattanooga"
	},
	{
		"Title": "Intermediate Accounting II",
		"Subject": "ACC",
		"Level": "3010",
		"Hours": "3",
		"CRN": "40247",
		"Meeting": [
			{
				"days": "MW",
				"hours": "03:25  PM - 04:40  PM"
			}
		],
		"Campus": "UT Chattanooga"
	},
	{
		"Title": "Managerial Cost Accounting",
		"Subject": "ACC",
		"Level": "3050",
		"Hours": "3",
		"CRN": "40248",
		"Meeting": [
			{
				"days": "TT",
				"hours": "09:25  AM - 10:40  AM"
			}
		],
		"Campus": "UT Chattanooga"
	},
	{
		"Title": "Managerial Cost Accounting",
		"Subject": "ACC",
		"Level": "3050",
		"Hours": "3",
		"CRN": "40249",
		"Meeting": [
			{
				"days": "W",
				"hours": "05:30  PM - 08:00  PM"
			}
		],
		"Campus": "UT Chattanooga"
	},
	{
		"Title": "Federal Tax Accounting",
		"Subject": "ACC",
		"Level": "3070",
		"Hours": "3",
		"CRN": "40250",
		"Meeting": [
			{
				"days": "TT",
				"hours": "10:50  AM - 12:05  PM"
			}
		],
		"Campus": "UT Chattanooga"
	},
	{
		"Title": "Federal Tax Accounting",
		"Subject": "ACC",
		"Level": "3070",
		"Hours": "3",
		"CRN": "40251",
		"Meeting": [
			{
				"days": "TT",
				"hours": "12:15  PM - 01:30  PM"
			}
		],
		"Campus": "UT Chattanooga"
	},
	{
		"Title": "Experiential Learning: Academic Internship Program",
		"Subject": "ACC",
		"Level": "3900R",
		"Hours": "1 TO 3",
		"CRN": "42888",
		"Meeting": [
			{
				"days": "",
				"hours": " - "
			}
		],
		"Campus": "UT Chattanooga"
	},
	{
		"Title": "Advanced Accounting",
		"Subject": "ACC",
		"Level": "4010",
		"Hours": "3",
		"CRN": "41070",
		"Meeting": [
			{
				"days": "MW",
				"hours": "02:00  PM - 03:15  PM"
			}
		],
		"Campus": "UT Chattanooga"
	},
	{
		"Title": "Advanced Accounting",
		"Subject": "ACC",
		"Level": "4010",
		"Hours": "3",
		"CRN": "41071",
		"Meeting": [
			{
				"days": "M",
				"hours": "05:30  PM - 08:00  PM"
			}
		],
		"Campus": "UT Chattanooga"
	},
	{
		"Title": "Accounting Data Analytics",
		"Subject": "ACC",
		"Level": "4040",
		"Hours": "3",
		"CRN": "42555",
		"Meeting": [
			{
				"days": "",
				"hours": " - "
			}
		],
		"Campus": "UT Chattanooga"
	},
	{
		"Title": "Auditing",
		"Subject": "ACC",
		"Level": "4050",
		"Hours": "3",
		"CRN": "40669",
		"Meeting": [
			{
				"days": "W",
				"hours": "05:30  PM - 08:00  PM"
			}
		],
		"Campus": "UT Chattanooga"
	},
	{
		"Title": "Governmental Accounting",
		"Subject": "ACC",
		"Level": "4070",
		"Hours": "3",
		"CRN": "43111",
		"Meeting": [
			{
				"days": "",
				"hours": " - "
			}
		],
		"Campus": "UTC Online"
	},
	{
		"Title": "Accounting Information Systems",
		"Subject": "ACC",
		"Level": "4080",
		"Hours": "3",
		"CRN": "40643",
		"Meeting": [
			{
				"days": "TT",
				"hours": "03:05  PM - 04:20  PM"
			}
		],
		"Campus": "UT Chattanooga"
	},
	{
		"Title": "Accounting Information Systems",
		"Subject": "ACC",
		"Level": "4080",
		"Hours": "3",
		"CRN": "40254",
		"Meeting": [
			{
				"days": "T",
				"hours": "05:30  PM - 08:00  PM"
			}
		],
		"Campus": "UT Chattanooga"
	},
	{
		"Title": "Taxation of Corporations and Partnerships",
		"Subject": "ACC",
		"Level": "4110",
		"Hours": "3",
		"CRN": "40255",
		"Meeting": [
			{
				"days": "",
				"hours": " - "
			}
		],
		"Campus": "UTC Online"
	},
	{
		"Title": "Departmental Thesis",
		"Subject": "ACC",
		"Level": "4995R",
		"Hours": "1 TO 3",
		"CRN": "43731",
		"Meeting": [
			{
				"days": "",
				"hours": " - "
			}
		],
		"Campus": "UT Chattanooga"
	},
	{
		"Title": "Special Topics in Accounting",
		"Subject": "ACC",
		"Level": "5000R",
		"Hours": "3",
		"CRN": "42876",
		"Meeting": [
			{
				"days": "",
				"hours": " - "
			}
		],
		"Campus": "UT Chattanooga"
	},
	{
		"Title": "Governmental and Nonprofit Accounting",
		"Subject": "ACC",
		"Level": "5070",
		"Hours": "3",
		"CRN": "43200",
		"Meeting": [
			{
				"days": "",
				"hours": " - "
			}
		],
		"Campus": "UTC Online"
	},
	{
		"Title": "Taxation of Corporations and Partnerships",
		"Subject": "ACC",
		"Level": "5110",
		"Hours": "3",
		"CRN": "40782",
		"Meeting": [
			{
				"days": "",
				"hours": " - "
			}
		],
		"Campus": "UTC Online"
	},
	{
		"Title": "Advanced Managerial Accounting and Control",
		"Subject": "ACC",
		"Level": "5310",
		"Hours": "3",
		"CRN": "40256",
		"Meeting": [
			{
				"days": "M",
				"hours": "05:30  PM - 08:00  PM"
			}
		],
		"Campus": "UTC Online"
	},
	{
		"Title": "Advanced Managerial Accounting Lab",
		"Subject": "ACC",
		"Level": "5310L",
		"Hours": "1",
		"CRN": "41349",
		"Meeting": [
			{
				"days": "MW",
				"hours": "08:05  PM - 09:15  PM"
			}
		],
		"Campus": "UTC Online"
	},
	{
		"Title": "Financial Accounting Theory and Issues",
		"Subject": "ACC",
		"Level": "5470",
		"Hours": "3",
		"CRN": "40257",
		"Meeting": [
			{
				"days": "MW",
				"hours": "05:30  PM - 08:00  PM"
			}
		],
		"Campus": "UT Chattanooga"
	},
	{
		"Title": "Financial Accounting Theory and Issues Lab",
		"Subject": "ACC",
		"Level": "5470L",
		"Hours": "1",
		"CRN": "41350",
		"Meeting": [
			{
				"days": "MW",
				"hours": "08:05  PM - 09:15  PM"
			},
			{
				"days": "",
				"hours": " - "
			}
		],
		"Campus": "UTC Online"
	},
	{
		"Title": "Accounting for Managers",
		"Subject": "ACC",
		"Level": "5855",
		"Hours": "3",
		"CRN": "41410",
		"Meeting": [
			{
				"days": "M",
				"hours": "05:30  PM - 08:00  PM"
			}
		],
		"Campus": "UT Chattanooga"
	}
]