[
	{
		"Title": "Rhetoric and Composition I",
		"Subject": "ENGL",
		"Level": "1010",
		"Hours": "3",
		"CRN": "40031",
		"Meeting": [
			{
				"days": "",
				"hours": " - "
			}
		],
		"Campus": "UT Chattanooga"
	},
	{
		"Title": "Rhetoric and Composition I",
		"Subject": "ENGL",
		"Level": "1010",
		"Hours": "3",
		"CRN": "40032",
		"Meeting": [
			{
				"days": "",
				"hours": " - "
			}
		],
		"Campus": "UT Chattanooga"
	},
	{
		"Title": "Rhetoric and Composition I",
		"Subject": "ENGL",
		"Level": "1010",
		"Hours": "3",
		"CRN": "40033",
		"Meeting": [
			{
				"days": "",
				"hours": " - "
			}
		],
		"Campus": "UT Chattanooga"
	},
	{
		"Title": "Rhetoric and Composition I",
		"Subject": "ENGL",
		"Level": "1010",
		"Hours": "3",
		"CRN": "40920",
		"Meeting": [
			{
				"days": "MWF",
				"hours": "09:00  AM - 09:50  AM"
			}
		],
		"Campus": "UT Chattanooga"
	},
	{
		"Title": "Rhetoric and Composition I",
		"Subject": "ENGL",
		"Level": "1010",
		"Hours": "3",
		"CRN": "40034",
		"Meeting": [
			{
				"days": "MWF",
				"hours": "09:00  AM - 09:50  AM"
			}
		],
		"Campus": "UT Chattanooga"
	},
	{
		"Title": "Rhetoric and Composition I",
		"Subject": "ENGL",
		"Level": "1010",
		"Hours": "3",
		"CRN": "41271",
		"Meeting": [
			{
				"days": "MWF",
				"hours": "10:00  AM - 10:50  AM"
			}
		],
		"Campus": "UT Chattanooga"
	},
	{
		"Title": "Rhetoric and Composition I",
		"Subject": "ENGL",
		"Level": "1010",
		"Hours": "3",
		"CRN": "40037",
		"Meeting": [
			{
				"days": "MWF",
				"hours": "10:00  AM - 10:50  AM"
			}
		],
		"Campus": "UT Chattanooga"
	},
	{
		"Title": "Rhetoric and Composition I",
		"Subject": "ENGL",
		"Level": "1010",
		"Hours": "3",
		"CRN": "40036",
		"Meeting": [
			{
				"days": "MWF",
				"hours": "10:00  AM - 10:50  AM"
			}
		],
		"Campus": "UT Chattanooga"
	},
	{
		"Title": "Rhetoric and Composition I",
		"Subject": "ENGL",
		"Level": "1010",
		"Hours": "3",
		"CRN": "40038",
		"Meeting": [
			{
				"days": "MWF",
				"hours": "11:00  AM - 11:50  AM"
			}
		],
		"Campus": "UT Chattanooga"
	},
	{
		"Title": "Rhetoric and Composition I",
		"Subject": "ENGL",
		"Level": "1010",
		"Hours": "3",
		"CRN": "40039",
		"Meeting": [
			{
				"days": "",
				"hours": " - "
			}
		],
		"Campus": "UT Chattanooga"
	},
	{
		"Title": "Rhetoric and Composition I",
		"Subject": "ENGL",
		"Level": "1010",
		"Hours": "3",
		"CRN": "41272",
		"Meeting": [
			{
				"days": "MWF",
				"hours": "11:00  AM - 11:50  AM"
			}
		],
		"Campus": "UT Chattanooga"
	},
	{
		"Title": "Rhetoric and Composition I",
		"Subject": "ENGL",
		"Level": "1010",
		"Hours": "3",
		"CRN": "40041",
		"Meeting": [
			{
				"days": "MWF",
				"hours": "12:00  PM - 12:50  PM"
			}
		],
		"Campus": "UT Chattanooga"
	},
	{
		"Title": "Rhetoric and Composition I",
		"Subject": "ENGL",
		"Level": "1010",
		"Hours": "3",
		"CRN": "40042",
		"Meeting": [
			{
				"days": "MWF",
				"hours": "12:00  PM - 12:50  PM"
			}
		],
		"Campus": "UT Chattanooga"
	},
	{
		"Title": "Rhetoric and Composition I",
		"Subject": "ENGL",
		"Level": "1010",
		"Hours": "3",
		"CRN": "40043",
		"Meeting": [
			{
				"days": "MWF",
				"hours": "01:00  PM - 01:50  PM"
			}
		],
		"Campus": "UT Chattanooga"
	},
	{
		"Title": "Rhetoric and Composition I",
		"Subject": "ENGL",
		"Level": "1010",
		"Hours": "3",
		"CRN": "40045",
		"Meeting": [
			{
				"days": "MW",
				"hours": "03:25  PM - 04:40  PM"
			}
		],
		"Campus": "UT Chattanooga"
	},
	{
		"Title": "Rhetoric and Composition I",
		"Subject": "ENGL",
		"Level": "1010",
		"Hours": "3",
		"CRN": "40046",
		"Meeting": [
			{
				"days": "",
				"hours": " - "
			}
		],
		"Campus": "UT Chattanooga"
	},
	{
		"Title": "Rhetoric and Composition I",
		"Subject": "ENGL",
		"Level": "1010",
		"Hours": "3",
		"CRN": "40047",
		"Meeting": [
			{
				"days": "TT",
				"hours": "09:25  AM - 10:40  AM"
			}
		],
		"Campus": "UT Chattanooga"
	},
	{
		"Title": "Rhetoric and Composition I",
		"Subject": "ENGL",
		"Level": "1010",
		"Hours": "3",
		"CRN": "40571",
		"Meeting": [
			{
				"days": "TT",
				"hours": "09:25  AM - 10:40  AM"
			}
		],
		"Campus": "UT Chattanooga"
	},
	{
		"Title": "Rhetoric and Composition I",
		"Subject": "ENGL",
		"Level": "1010",
		"Hours": "3",
		"CRN": "40048",
		"Meeting": [
			{
				"days": "TT",
				"hours": "10:50  AM - 12:05  PM"
			}
		],
		"Campus": "UT Chattanooga"
	},
	{
		"Title": "Rhetoric and Composition I",
		"Subject": "ENGL",
		"Level": "1010",
		"Hours": "3",
		"CRN": "40049",
		"Meeting": [
			{
				"days": "TT",
				"hours": "10:50  AM - 12:05  PM"
			}
		],
		"Campus": "UT Chattanooga"
	},
	{
		"Title": "Rhetoric and Composition I",
		"Subject": "ENGL",
		"Level": "1010",
		"Hours": "3",
		"CRN": "40572",
		"Meeting": [
			{
				"days": "TT",
				"hours": "12:15  PM - 01:30  PM"
			}
		],
		"Campus": "UT Chattanooga"
	},
	{
		"Title": "Rhetoric and Composition I",
		"Subject": "ENGL",
		"Level": "1010",
		"Hours": "3",
		"CRN": "40050",
		"Meeting": [
			{
				"days": "TT",
				"hours": "01:40  PM - 02:55  PM"
			}
		],
		"Campus": "UT Chattanooga"
	},
	{
		"Title": "Rhetoric and Composition I",
		"Subject": "ENGL",
		"Level": "1010",
		"Hours": "3",
		"CRN": "40051",
		"Meeting": [
			{
				"days": "TT",
				"hours": "01:40  PM - 02:55  PM"
			}
		],
		"Campus": "UT Chattanooga"
	},
	{
		"Title": "Rhetoric and Composition I",
		"Subject": "ENGL",
		"Level": "1010",
		"Hours": "3",
		"CRN": "41274",
		"Meeting": [
			{
				"days": "TT",
				"hours": "03:05  PM - 04:20  PM"
			}
		],
		"Campus": "UT Chattanooga"
	},
	{
		"Title": "Rhetoric and Composition I",
		"Subject": "ENGL",
		"Level": "1010",
		"Hours": "3",
		"CRN": "40052",
		"Meeting": [
			{
				"days": "TT",
				"hours": "03:05  PM - 04:20  PM"
			}
		],
		"Campus": "UT Chattanooga"
	},
	{
		"Title": "Rhetoric and Composition I",
		"Subject": "ENGL",
		"Level": "1010",
		"Hours": "3",
		"CRN": "40573",
		"Meeting": [
			{
				"days": "M",
				"hours": "05:30  PM - 08:00  PM"
			}
		],
		"Campus": "UT Chattanooga"
	},
	{
		"Title": "Rhetoric and Composition I",
		"Subject": "ENGL",
		"Level": "1010",
		"Hours": "3",
		"CRN": "40053",
		"Meeting": [
			{
				"days": "",
				"hours": " - "
			}
		],
		"Campus": "UT Chattanooga"
	},
	{
		"Title": "Rhetoric and Composition I",
		"Subject": "ENGL",
		"Level": "1010",
		"Hours": "3",
		"CRN": "43937",
		"Meeting": [
			{
				"days": "TT",
				"hours": "01:40  PM - 02:55  PM"
			}
		],
		"Campus": "UT Chattanooga"
	},
	{
		"Title": "Rhetoric and Composition I",
		"Subject": "ENGL",
		"Level": "1010",
		"Hours": "3",
		"CRN": "40054",
		"Meeting": [
			{
				"days": "MW",
				"hours": "09:00  AM - 09:50  AM"
			},
			{
				"days": "",
				"hours": " - "
			}
		],
		"Campus": "UT Chattanooga"
	},
	{
		"Title": "Rhetoric and Composition I",
		"Subject": "ENGL",
		"Level": "1010",
		"Hours": "3",
		"CRN": "40055",
		"Meeting": [
			{
				"days": "",
				"hours": " - "
			}
		],
		"Campus": "UT Chattanooga"
	},
	{
		"Title": "Rhetoric and Composition I",
		"Subject": "ENGL",
		"Level": "1010",
		"Hours": "3",
		"CRN": "40056",
		"Meeting": [
			{
				"days": "",
				"hours": " - "
			}
		],
		"Campus": "UT Chattanooga"
	},
	{
		"Title": "Rhetoric and Composition I",
		"Subject": "ENGL",
		"Level": "1010",
		"Hours": "3",
		"CRN": "40646",
		"Meeting": [
			{
				"days": "",
				"hours": " - "
			}
		],
		"Campus": "UT Chattanooga"
	},
	{
		"Title": "Rhetoric and Composition I",
		"Subject": "ENGL",
		"Level": "1010",
		"Hours": "3",
		"CRN": "41487",
		"Meeting": [
			{
				"days": "",
				"hours": " - "
			}
		],
		"Campus": "UT Chattanooga"
	},
	{
		"Title": "Rhetoric and Composition I",
		"Subject": "ENGL",
		"Level": "1010",
		"Hours": "3",
		"CRN": "41489",
		"Meeting": [
			{
				"days": "",
				"hours": " - "
			}
		],
		"Campus": "UT Chattanooga"
	},
	{
		"Title": "Rhetoric and Composition I",
		"Subject": "ENGL",
		"Level": "1010",
		"Hours": "3",
		"CRN": "41490",
		"Meeting": [
			{
				"days": "MW",
				"hours": "12:00  PM - 12:50  PM"
			}
		],
		"Campus": "UT Chattanooga"
	},
	{
		"Title": "Rhetoric and Composition I",
		"Subject": "ENGL",
		"Level": "1010",
		"Hours": "3",
		"CRN": "42275",
		"Meeting": [
			{
				"days": "MW",
				"hours": "01:00  PM - 01:50  PM"
			}
		],
		"Campus": "UT Chattanooga"
	},
	{
		"Title": "Rhetoric and Composition I",
		"Subject": "ENGL",
		"Level": "1010",
		"Hours": "3",
		"CRN": "42276",
		"Meeting": [
			{
				"days": "MW",
				"hours": "01:00  PM - 01:50  PM"
			}
		],
		"Campus": "UT Chattanooga"
	},
	{
		"Title": "Rhetoric and Composition I",
		"Subject": "ENGL",
		"Level": "1010",
		"Hours": "3",
		"CRN": "42277",
		"Meeting": [
			{
				"days": "",
				"hours": " - "
			}
		],
		"Campus": "UT Chattanooga"
	},
	{
		"Title": "Rhetoric and Composition I",
		"Subject": "ENGL",
		"Level": "1010",
		"Hours": "3",
		"CRN": "40035",
		"Meeting": [
			{
				"days": "",
				"hours": " - "
			}
		],
		"Campus": "UT Chattanooga"
	},
	{
		"Title": "Rhetoric and Composition I",
		"Subject": "ENGL",
		"Level": "1010",
		"Hours": "3",
		"CRN": "40040",
		"Meeting": [
			{
				"days": "",
				"hours": " - "
			}
		],
		"Campus": "UT Chattanooga"
	},
	{
		"Title": "Rhetoric and Composition I",
		"Subject": "ENGL",
		"Level": "1010",
		"Hours": "3",
		"CRN": "41285",
		"Meeting": [
			{
				"days": "",
				"hours": " - "
			}
		],
		"Campus": "UT Chattanooga"
	},
	{
		"Title": "Rhetoric and Composition I",
		"Subject": "ENGL",
		"Level": "1010",
		"Hours": "3",
		"CRN": "41286",
		"Meeting": [
			{
				"days": "",
				"hours": " - "
			}
		],
		"Campus": "UT Chattanooga"
	},
	{
		"Title": "Rhetoric and Composition I",
		"Subject": "ENGL",
		"Level": "1010",
		"Hours": "3",
		"CRN": "41287",
		"Meeting": [
			{
				"days": "",
				"hours": " - "
			}
		],
		"Campus": "UT Chattanooga"
	},
	{
		"Title": "Rhetoric and Composition I",
		"Subject": "ENGL",
		"Level": "1010",
		"Hours": "3",
		"CRN": "43298",
		"Meeting": [
			{
				"days": "",
				"hours": " - "
			}
		],
		"Campus": "UT Chattanooga"
	},
	{
		"Title": "Rhetoric and Composition I with Writing Tutorial",
		"Subject": "ENGL",
		"Level": "1011",
		"Hours": "4",
		"CRN": "40647",
		"Meeting": [
			{
				"days": "MWF",
				"hours": "09:00  AM - 09:50  AM"
			},
			{
				"days": "T",
				"hours": "09:25  AM - 10:40  AM"
			}
		],
		"Campus": "UT Chattanooga"
	},
	{
		"Title": "Rhetoric and Composition I with Writing Tutorial",
		"Subject": "ENGL",
		"Level": "1011",
		"Hours": "4",
		"CRN": "40648",
		"Meeting": [
			{
				"days": "MW",
				"hours": "09:00  AM - 09:50  AM"
			},
			{
				"days": "F",
				"hours": "09:00  AM - 09:50  AM"
			},
			{
				"days": "T",
				"hours": "09:25  AM - 10:40  AM"
			}
		],
		"Campus": "UT Chattanooga"
	},
	{
		"Title": "Rhetoric and Composition I with Writing Tutorial",
		"Subject": "ENGL",
		"Level": "1011",
		"Hours": "4",
		"CRN": "40713",
		"Meeting": [
			{
				"days": "T",
				"hours": "09:25  AM - 10:40  AM"
			},
			{
				"days": "MW",
				"hours": "10:00  AM - 10:50  AM"
			},
			{
				"days": "F",
				"hours": "10:00  AM - 10:50  AM"
			}
		],
		"Campus": "UT Chattanooga"
	},
	{
		"Title": "Rhetoric and Composition I with Writing Tutorial",
		"Subject": "ENGL",
		"Level": "1011",
		"Hours": "4",
		"CRN": "40650",
		"Meeting": [
			{
				"days": "MWF",
				"hours": "10:00  AM - 10:50  AM"
			},
			{
				"days": "T",
				"hours": "10:50  AM - 12:05  PM"
			}
		],
		"Campus": "UT Chattanooga"
	},
	{
		"Title": "Rhetoric and Composition I with Writing Tutorial",
		"Subject": "ENGL",
		"Level": "1011",
		"Hours": "4",
		"CRN": "40652",
		"Meeting": [
			{
				"days": "T",
				"hours": "09:25  AM - 10:40  AM"
			},
			{
				"days": "MW",
				"hours": "10:00  AM - 10:50  AM"
			},
			{
				"days": "F",
				"hours": "10:00  AM - 10:50  AM"
			}
		],
		"Campus": "UT Chattanooga"
	},
	{
		"Title": "Rhetoric and Composition I with Writing Tutorial",
		"Subject": "ENGL",
		"Level": "1011",
		"Hours": "4",
		"CRN": "40653",
		"Meeting": [
			{
				"days": "T",
				"hours": "10:50  AM - 12:05  PM"
			},
			{
				"days": "MW",
				"hours": "11:00  AM - 11:50  AM"
			},
			{
				"days": "F",
				"hours": "11:00  AM - 11:50  AM"
			}
		],
		"Campus": "UT Chattanooga"
	},
	{
		"Title": "Rhetoric and Composition I with Writing Tutorial",
		"Subject": "ENGL",
		"Level": "1011",
		"Hours": "4",
		"CRN": "40654",
		"Meeting": [
			{
				"days": "T",
				"hours": "10:50  AM - 12:05  PM"
			},
			{
				"days": "MWF",
				"hours": "11:00  AM - 11:50  AM"
			}
		],
		"Campus": "UT Chattanooga"
	},
	{
		"Title": "Rhetoric and Composition I with Writing Tutorial",
		"Subject": "ENGL",
		"Level": "1011",
		"Hours": "4",
		"CRN": "40655",
		"Meeting": [
			{
				"days": "T",
				"hours": "10:50  AM - 12:05  PM"
			},
			{
				"days": "MWF",
				"hours": "11:00  AM - 11:50  AM"
			}
		],
		"Campus": "UT Chattanooga"
	},
	{
		"Title": "Rhetoric and Composition I with Writing Tutorial",
		"Subject": "ENGL",
		"Level": "1011",
		"Hours": "4",
		"CRN": "40656",
		"Meeting": [
			{
				"days": "MW",
				"hours": "12:00  PM - 12:50  PM"
			},
			{
				"days": "F",
				"hours": "12:00  PM - 12:50  PM"
			},
			{
				"days": "T",
				"hours": "12:15  PM - 01:30  PM"
			}
		],
		"Campus": "UT Chattanooga"
	},
	{
		"Title": "Rhetoric and Composition I with Writing Tutorial",
		"Subject": "ENGL",
		"Level": "1011",
		"Hours": "4",
		"CRN": "40657",
		"Meeting": [
			{
				"days": "MW",
				"hours": "12:00  PM - 12:50  PM"
			},
			{
				"days": "F",
				"hours": "12:00  PM - 12:50  PM"
			},
			{
				"days": "T",
				"hours": "01:40  PM - 02:55  PM"
			}
		],
		"Campus": "UT Chattanooga"
	},
	{
		"Title": "Rhetoric and Composition I with Writing Tutorial",
		"Subject": "ENGL",
		"Level": "1011",
		"Hours": "4",
		"CRN": "43220",
		"Meeting": [
			{
				"days": "T",
				"hours": "12:15  PM - 01:30  PM"
			},
			{
				"days": "MWF",
				"hours": "01:00  PM - 01:50  PM"
			}
		],
		"Campus": "UT Chattanooga"
	},
	{
		"Title": "Rhetoric and Composition I with Writing Tutorial",
		"Subject": "ENGL",
		"Level": "1011",
		"Hours": "4",
		"CRN": "40661",
		"Meeting": [
			{
				"days": "T",
				"hours": "01:40  PM - 02:55  PM"
			},
			{
				"days": "MW",
				"hours": "02:00  PM - 03:15  PM"
			}
		],
		"Campus": "UT Chattanooga"
	},
	{
		"Title": "Rhetoric and Composition I with Writing Tutorial",
		"Subject": "ENGL",
		"Level": "1011",
		"Hours": "4",
		"CRN": "40663",
		"Meeting": [
			{
				"days": "T",
				"hours": "01:40  PM - 02:55  PM"
			},
			{
				"days": "MW",
				"hours": "03:25  PM - 04:40  PM"
			}
		],
		"Campus": "UT Chattanooga"
	},
	{
		"Title": "Rhetoric and Composition I with Writing Tutorial",
		"Subject": "ENGL",
		"Level": "1011",
		"Hours": "4",
		"CRN": "40662",
		"Meeting": [
			{
				"days": "TT",
				"hours": "08:00  AM - 09:15  AM"
			},
			{
				"days": "T",
				"hours": "01:40  PM - 02:55  PM"
			}
		],
		"Campus": "UT Chattanooga"
	},
	{
		"Title": "Rhetoric and Composition I with Writing Tutorial",
		"Subject": "ENGL",
		"Level": "1011",
		"Hours": "4",
		"CRN": "40677",
		"Meeting": [
			{
				"days": "TT",
				"hours": "09:25  AM - 10:40  AM"
			},
			{
				"days": "T",
				"hours": "03:05  PM - 04:20  PM"
			}
		],
		"Campus": "UT Chattanooga"
	},
	{
		"Title": "Rhetoric and Composition I with Writing Tutorial",
		"Subject": "ENGL",
		"Level": "1011",
		"Hours": "4",
		"CRN": "40678",
		"Meeting": [
			{
				"days": "TT",
				"hours": "09:25  AM - 10:40  AM"
			},
			{
				"days": "T",
				"hours": "03:05  PM - 04:20  PM"
			}
		],
		"Campus": "UT Chattanooga"
	},
	{
		"Title": "Rhetoric and Composition I with Writing Tutorial",
		"Subject": "ENGL",
		"Level": "1011",
		"Hours": "4",
		"CRN": "40679",
		"Meeting": [
			{
				"days": "TT",
				"hours": "10:50  AM - 12:05  PM"
			},
			{
				"days": "W",
				"hours": "02:00  PM - 03:15  PM"
			}
		],
		"Campus": "UT Chattanooga"
	},
	{
		"Title": "Rhetoric and Composition I with Writing Tutorial",
		"Subject": "ENGL",
		"Level": "1011",
		"Hours": "4",
		"CRN": "40680",
		"Meeting": [
			{
				"days": "TT",
				"hours": "10:50  AM - 12:05  PM"
			},
			{
				"days": "W",
				"hours": "02:00  PM - 03:15  PM"
			}
		],
		"Campus": "UT Chattanooga"
	},
	{
		"Title": "Rhetoric and Composition I with Writing Tutorial",
		"Subject": "ENGL",
		"Level": "1011",
		"Hours": "4",
		"CRN": "40681",
		"Meeting": [
			{
				"days": "TT",
				"hours": "12:15  PM - 01:30  PM"
			},
			{
				"days": "W",
				"hours": "03:25  PM - 04:40  PM"
			}
		],
		"Campus": "UT Chattanooga"
	},
	{
		"Title": "Rhetoric and Composition I with Writing Tutorial",
		"Subject": "ENGL",
		"Level": "1011",
		"Hours": "4",
		"CRN": "40685",
		"Meeting": [
			{
				"days": "TT",
				"hours": "12:15  PM - 01:30  PM"
			},
			{
				"days": "W",
				"hours": "03:25  PM - 04:40  PM"
			}
		],
		"Campus": "UT Chattanooga"
	},
	{
		"Title": "Rhetoric and Composition I with Writing Tutorial",
		"Subject": "ENGL",
		"Level": "1011",
		"Hours": "4",
		"CRN": "41047",
		"Meeting": [
			{
				"days": "TT",
				"hours": "01:40  PM - 02:55  PM"
			},
			{
				"days": "W",
				"hours": "03:25  PM - 04:40  PM"
			}
		],
		"Campus": "UT Chattanooga"
	},
	{
		"Title": "Rhetoric and Composition I with Writing Tutorial",
		"Subject": "ENGL",
		"Level": "1011",
		"Hours": "4",
		"CRN": "41048",
		"Meeting": [
			{
				"days": "TT",
				"hours": "01:40  PM - 02:55  PM"
			},
			{
				"days": "W",
				"hours": "02:00  PM - 03:15  PM"
			}
		],
		"Campus": "UT Chattanooga"
	},
	{
		"Title": "Rhetoric and Composition I with Writing Tutorial",
		"Subject": "ENGL",
		"Level": "1011",
		"Hours": "4",
		"CRN": "41050",
		"Meeting": [
			{
				"days": "W",
				"hours": "02:00  PM - 03:15  PM"
			},
			{
				"days": "TT",
				"hours": "03:05  PM - 04:20  PM"
			}
		],
		"Campus": "UT Chattanooga"
	},
	{
		"Title": "Rhetoric and Composition I with Writing Tutorial",
		"Subject": "ENGL",
		"Level": "1011",
		"Hours": "4",
		"CRN": "41111",
		"Meeting": [
			{
				"days": "W",
				"hours": "02:00  PM - 03:15  PM"
			},
			{
				"days": "TT",
				"hours": "03:05  PM - 04:20  PM"
			}
		],
		"Campus": "UT Chattanooga"
	},
	{
		"Title": "Rhetoric and Composition I with Writing Tutorial",
		"Subject": "ENGL",
		"Level": "1011",
		"Hours": "4",
		"CRN": "40649",
		"Meeting": [
			{
				"days": "MW",
				"hours": "09:00  AM - 09:50  AM"
			},
			{
				"days": "T",
				"hours": "09:25  AM - 10:40  AM"
			},
			{
				"days": "",
				"hours": " - "
			}
		],
		"Campus": "UT Chattanooga"
	},
	{
		"Title": "Rhetoric and Composition I with Writing Tutorial",
		"Subject": "ENGL",
		"Level": "1011",
		"Hours": "4",
		"CRN": "40651",
		"Meeting": [
			{
				"days": "T",
				"hours": "09:25  AM - 10:40  AM"
			},
			{
				"days": "MW",
				"hours": "10:00  AM - 10:50  AM"
			}
		],
		"Campus": "UT Chattanooga"
	},
	{
		"Title": "Rhetoric and Composition I with Writing Tutorial",
		"Subject": "ENGL",
		"Level": "1011",
		"Hours": "4",
		"CRN": "40658",
		"Meeting": [
			{
				"days": "T",
				"hours": "10:50  AM - 12:05  PM"
			},
			{
				"days": "MW",
				"hours": "12:00  PM - 12:50  PM"
			}
		],
		"Campus": "UT Chattanooga"
	},
	{
		"Title": "Rhetoric and Composition I with Writing Tutorial",
		"Subject": "ENGL",
		"Level": "1011",
		"Hours": "4",
		"CRN": "40660",
		"Meeting": [
			{
				"days": "MW",
				"hours": "10:00  AM - 10:50  AM"
			},
			{
				"days": "T",
				"hours": "10:50  AM - 12:05  PM"
			}
		],
		"Campus": "UT Chattanooga"
	},
	{
		"Title": "Rhetoric and Composition II",
		"Subject": "ENGL",
		"Level": "1020",
		"Hours": "3",
		"CRN": "41254",
		"Meeting": [
			{
				"days": "",
				"hours": " - "
			}
		],
		"Campus": "UT Chattanooga"
	},
	{
		"Title": "Rhetoric and Composition II",
		"Subject": "ENGL",
		"Level": "1020",
		"Hours": "3",
		"CRN": "40057",
		"Meeting": [
			{
				"days": "MWF",
				"hours": "09:00  AM - 09:50  AM"
			}
		],
		"Campus": "UT Chattanooga"
	},
	{
		"Title": "Rhetoric and Composition II",
		"Subject": "ENGL",
		"Level": "1020",
		"Hours": "3",
		"CRN": "40058",
		"Meeting": [
			{
				"days": "MWF",
				"hours": "10:00  AM - 10:50  AM"
			}
		],
		"Campus": "UT Chattanooga"
	},
	{
		"Title": "Rhetoric and Composition II",
		"Subject": "ENGL",
		"Level": "1020",
		"Hours": "3",
		"CRN": "42224",
		"Meeting": [
			{
				"days": "MWF",
				"hours": "10:00  AM - 10:50  AM"
			}
		],
		"Campus": "UT Chattanooga"
	},
	{
		"Title": "Rhetoric and Composition II",
		"Subject": "ENGL",
		"Level": "1020",
		"Hours": "3",
		"CRN": "40926",
		"Meeting": [
			{
				"days": "MWF",
				"hours": "11:00  AM - 11:50  AM"
			}
		],
		"Campus": "UT Chattanooga"
	},
	{
		"Title": "Rhetoric and Composition II",
		"Subject": "ENGL",
		"Level": "1020",
		"Hours": "3",
		"CRN": "40059",
		"Meeting": [
			{
				"days": "MWF",
				"hours": "12:00  PM - 12:50  PM"
			}
		],
		"Campus": "UT Chattanooga"
	},
	{
		"Title": "Rhetoric and Composition II",
		"Subject": "ENGL",
		"Level": "1020",
		"Hours": "3",
		"CRN": "40060",
		"Meeting": [
			{
				"days": "MWF",
				"hours": "12:00  PM - 12:50  PM"
			}
		],
		"Campus": "UT Chattanooga"
	},
	{
		"Title": "Rhetoric and Composition II",
		"Subject": "ENGL",
		"Level": "1020",
		"Hours": "3",
		"CRN": "41277",
		"Meeting": [
			{
				"days": "MWF",
				"hours": "01:00  PM - 01:50  PM"
			}
		],
		"Campus": "UT Chattanooga"
	},
	{
		"Title": "Rhetoric and Composition II",
		"Subject": "ENGL",
		"Level": "1020",
		"Hours": "3",
		"CRN": "41278",
		"Meeting": [
			{
				"days": "MWF",
				"hours": "01:00  PM - 01:50  PM"
			}
		],
		"Campus": "UT Chattanooga"
	},
	{
		"Title": "Rhetoric and Composition II",
		"Subject": "ENGL",
		"Level": "1020",
		"Hours": "3",
		"CRN": "40061",
		"Meeting": [
			{
				"days": "MW",
				"hours": "02:00  PM - 03:15  PM"
			}
		],
		"Campus": "UT Chattanooga"
	},
	{
		"Title": "Rhetoric and Composition II",
		"Subject": "ENGL",
		"Level": "1020",
		"Hours": "3",
		"CRN": "43225",
		"Meeting": [
			{
				"days": "",
				"hours": " - "
			}
		],
		"Campus": "UT Chattanooga"
	},
	{
		"Title": "Rhetoric and Composition II",
		"Subject": "ENGL",
		"Level": "1020",
		"Hours": "3",
		"CRN": "43025",
		"Meeting": [
			{
				"days": "",
				"hours": " - "
			}
		],
		"Campus": "UT Chattanooga"
	},
	{
		"Title": "Rhetoric and Composition II",
		"Subject": "ENGL",
		"Level": "1020",
		"Hours": "3",
		"CRN": "41423",
		"Meeting": [
			{
				"days": "",
				"hours": " - "
			}
		],
		"Campus": "UT Chattanooga"
	},
	{
		"Title": "Rhetoric and Composition II",
		"Subject": "ENGL",
		"Level": "1020",
		"Hours": "3",
		"CRN": "41488",
		"Meeting": [
			{
				"days": "",
				"hours": " - "
			}
		],
		"Campus": "UT Chattanooga"
	},
	{
		"Title": "Rhetoric and Composition II",
		"Subject": "ENGL",
		"Level": "1020",
		"Hours": "3",
		"CRN": "41544",
		"Meeting": [
			{
				"days": "",
				"hours": " - "
			}
		],
		"Campus": "UT Chattanooga"
	},
	{
		"Title": "Rhetoric and Composition II",
		"Subject": "ENGL",
		"Level": "1020",
		"Hours": "3",
		"CRN": "41545",
		"Meeting": [
			{
				"days": "",
				"hours": " - "
			}
		],
		"Campus": "UT Chattanooga"
	},
	{
		"Title": "Rhetoric and Composition II",
		"Subject": "ENGL",
		"Level": "1020",
		"Hours": "3",
		"CRN": "41276",
		"Meeting": [
			{
				"days": "",
				"hours": " - "
			}
		],
		"Campus": "UT Chattanooga"
	},
	{
		"Title": "Rhetoric and Composition II",
		"Subject": "ENGL",
		"Level": "1020",
		"Hours": "3",
		"CRN": "41546",
		"Meeting": [
			{
				"days": "M",
				"hours": "05:30  PM - 08:00  PM"
			}
		],
		"Campus": "UT Chattanooga"
	},
	{
		"Title": "Rhetoric and Composition II",
		"Subject": "ENGL",
		"Level": "1020",
		"Hours": "3",
		"CRN": "41950",
		"Meeting": [
			{
				"days": "W",
				"hours": "05:30  PM - 08:00  PM"
			}
		],
		"Campus": "UT Chattanooga"
	},
	{
		"Title": "Rhetoric and Composition II",
		"Subject": "ENGL",
		"Level": "1020",
		"Hours": "3",
		"CRN": "43667",
		"Meeting": [
			{
				"days": "MW",
				"hours": "03:25  PM - 04:40  PM"
			}
		],
		"Campus": "UT Chattanooga"
	},
	{
		"Title": "Rhetoric and Composition II",
		"Subject": "ENGL",
		"Level": "1020",
		"Hours": "3",
		"CRN": "41275",
		"Meeting": [
			{
				"days": "",
				"hours": " - "
			}
		],
		"Campus": "UT Chattanooga"
	},
	{
		"Title": "Rhetoric and Composition II",
		"Subject": "ENGL",
		"Level": "1020",
		"Hours": "3",
		"CRN": "41964",
		"Meeting": [
			{
				"days": "",
				"hours": " - "
			}
		],
		"Campus": "UT Chattanooga"
	},
	{
		"Title": "Rhetoric and Composition II",
		"Subject": "ENGL",
		"Level": "1020",
		"Hours": "3",
		"CRN": "41290",
		"Meeting": [
			{
				"days": "",
				"hours": " - "
			}
		],
		"Campus": "UT Chattanooga"
	},
	{
		"Title": "Rhetoric and Composition II",
		"Subject": "ENGL",
		"Level": "1020",
		"Hours": "3",
		"CRN": "41291",
		"Meeting": [
			{
				"days": "",
				"hours": " - "
			}
		],
		"Campus": "UT Chattanooga"
	},
	{
		"Title": "Rhetoric and Composition II",
		"Subject": "ENGL",
		"Level": "1020",
		"Hours": "3",
		"CRN": "40062",
		"Meeting": [
			{
				"days": "",
				"hours": " - "
			}
		],
		"Campus": "UT Chattanooga"
	},
	{
		"Title": "Rhetoric and Composition II",
		"Subject": "ENGL",
		"Level": "1020",
		"Hours": "3",
		"CRN": "41289",
		"Meeting": [
			{
				"days": "",
				"hours": " - "
			}
		],
		"Campus": "UT Chattanooga"
	},
	{
		"Title": "Rhetoric and Composition II",
		"Subject": "ENGL",
		"Level": "1020",
		"Hours": "3",
		"CRN": "43307",
		"Meeting": [
			{
				"days": "",
				"hours": " - "
			}
		],
		"Campus": "UT Chattanooga"
	},
	{
		"Title": "Rhetoric and Composition II",
		"Subject": "ENGL",
		"Level": "1020",
		"Hours": "3",
		"CRN": "43309",
		"Meeting": [
			{
				"days": "",
				"hours": " - "
			}
		],
		"Campus": "UT Chattanooga"
	},
	{
		"Title": "Rhetoric and Composition II",
		"Subject": "ENGL",
		"Level": "1020",
		"Hours": "3",
		"CRN": "41292",
		"Meeting": [
			{
				"days": "",
				"hours": " - "
			}
		],
		"Campus": "UT Chattanooga"
	},
	{
		"Title": "Rhetoric and Composition II",
		"Subject": "ENGL",
		"Level": "1020",
		"Hours": "3",
		"CRN": "41293",
		"Meeting": [
			{
				"days": "",
				"hours": " - "
			}
		],
		"Campus": "UT Chattanooga"
	},
	{
		"Title": "Western Humanities I",
		"Subject": "ENGL",
		"Level": "1130",
		"Hours": "3",
		"CRN": "40029",
		"Meeting": [
			{
				"days": "",
				"hours": " - "
			}
		],
		"Campus": "UT Chattanooga"
	},
	{
		"Title": "Western Humanities I",
		"Subject": "ENGL",
		"Level": "1130",
		"Hours": "3",
		"CRN": "40027",
		"Meeting": [
			{
				"days": "",
				"hours": " - "
			}
		],
		"Campus": "UT Chattanooga"
	},
	{
		"Title": "Western Humanities I",
		"Subject": "ENGL",
		"Level": "1130",
		"Hours": "3",
		"CRN": "40028",
		"Meeting": [
			{
				"days": "",
				"hours": " - "
			}
		],
		"Campus": "UT Chattanooga"
	},
	{
		"Title": "Western Humanities I",
		"Subject": "ENGL",
		"Level": "1130",
		"Hours": "3",
		"CRN": "43072",
		"Meeting": [
			{
				"days": "",
				"hours": " - "
			}
		],
		"Campus": "UT Chattanooga"
	},
	{
		"Title": "Western Humanities II",
		"Subject": "ENGL",
		"Level": "1150",
		"Hours": "3",
		"CRN": "40030",
		"Meeting": [
			{
				"days": "MWF",
				"hours": "12:00  PM - 12:50  PM"
			}
		],
		"Campus": "UT Chattanooga"
	},
	{
		"Title": "Western Humanities II",
		"Subject": "ENGL",
		"Level": "1150",
		"Hours": "3",
		"CRN": "41280",
		"Meeting": [
			{
				"days": "MWF",
				"hours": "01:00  PM - 01:50  PM"
			}
		],
		"Campus": "UT Chattanooga"
	},
	{
		"Title": "Values in 20th-Century American Fiction",
		"Subject": "ENGL",
		"Level": "1310",
		"Hours": "3",
		"CRN": "41118",
		"Meeting": [
			{
				"days": "",
				"hours": " - "
			}
		],
		"Campus": "UT Chattanooga"
	},
	{
		"Title": "Values in 20th-Century American Fiction",
		"Subject": "ENGL",
		"Level": "1310",
		"Hours": "3",
		"CRN": "41295",
		"Meeting": [
			{
				"days": "",
				"hours": " - "
			}
		],
		"Campus": "UT Chattanooga"
	},
	{
		"Title": "Values in 20th-Century American Fiction",
		"Subject": "ENGL",
		"Level": "1310",
		"Hours": "3",
		"CRN": "41296",
		"Meeting": [
			{
				"days": "",
				"hours": " - "
			}
		],
		"Campus": "UT Chattanooga"
	},
	{
		"Title": "Introduction to Literature",
		"Subject": "ENGL",
		"Level": "1330",
		"Hours": "3",
		"CRN": "40948",
		"Meeting": [
			{
				"days": "MWF",
				"hours": "08:00  AM - 08:50  AM"
			}
		],
		"Campus": "UT Chattanooga"
	},
	{
		"Title": "Introduction to Literature",
		"Subject": "ENGL",
		"Level": "1330",
		"Hours": "3",
		"CRN": "40923",
		"Meeting": [
			{
				"days": "MWF",
				"hours": "09:00  AM - 09:50  AM"
			}
		],
		"Campus": "UT Chattanooga"
	},
	{
		"Title": "Introduction to Literature",
		"Subject": "ENGL",
		"Level": "1330",
		"Hours": "3",
		"CRN": "41119",
		"Meeting": [
			{
				"days": "",
				"hours": " - "
			}
		],
		"Campus": "UT Chattanooga"
	},
	{
		"Title": "Introduction to Literature",
		"Subject": "ENGL",
		"Level": "1330",
		"Hours": "3",
		"CRN": "41550",
		"Meeting": [
			{
				"days": "",
				"hours": " - "
			}
		],
		"Campus": "UT Chattanooga"
	},
	{
		"Title": "Introduction to Literature",
		"Subject": "ENGL",
		"Level": "1330",
		"Hours": "3",
		"CRN": "41414",
		"Meeting": [
			{
				"days": "TT",
				"hours": "01:40  PM - 02:55  PM"
			}
		],
		"Campus": "UT Chattanooga"
	},
	{
		"Title": "Introduction to Literature",
		"Subject": "ENGL",
		"Level": "1330",
		"Hours": "3",
		"CRN": "41415",
		"Meeting": [
			{
				"days": "TT",
				"hours": "03:05  PM - 04:20  PM"
			}
		],
		"Campus": "UT Chattanooga"
	},
	{
		"Title": "Introduction to Literature",
		"Subject": "ENGL",
		"Level": "1330",
		"Hours": "3",
		"CRN": "40949",
		"Meeting": [
			{
				"days": "",
				"hours": " - "
			}
		],
		"Campus": "UT Chattanooga"
	},
	{
		"Title": "Introduction to Literature",
		"Subject": "ENGL",
		"Level": "1330",
		"Hours": "3",
		"CRN": "40982",
		"Meeting": [
			{
				"days": "",
				"hours": " - "
			}
		],
		"Campus": "UT Chattanooga"
	},
	{
		"Title": "Introduction to Literature",
		"Subject": "ENGL",
		"Level": "1330",
		"Hours": "3",
		"CRN": "43513",
		"Meeting": [
			{
				"days": "MWF",
				"hours": "10:00  AM - 10:50  AM"
			}
		],
		"Campus": "UT Chattanooga"
	},
	{
		"Title": "Introduction to Literary Analysis",
		"Subject": "ENGL",
		"Level": "2010",
		"Hours": "3",
		"CRN": "40579",
		"Meeting": [
			{
				"days": "MWF",
				"hours": "09:00  AM - 09:50  AM"
			}
		],
		"Campus": "UT Chattanooga"
	},
	{
		"Title": "Introduction to Literary Analysis",
		"Subject": "ENGL",
		"Level": "2010",
		"Hours": "3",
		"CRN": "42545",
		"Meeting": [
			{
				"days": "MWF",
				"hours": "10:00  AM - 10:50  AM"
			}
		],
		"Campus": "UT Chattanooga"
	},
	{
		"Title": "Introduction to Rhetorical Analysis",
		"Subject": "ENGL",
		"Level": "2050",
		"Hours": "3",
		"CRN": "40065",
		"Meeting": [
			{
				"days": "TT",
				"hours": "12:15  PM - 01:30  PM"
			}
		],
		"Campus": "UT Chattanooga"
	},
	{
		"Title": "Introduction to Rhetorical Analysis",
		"Subject": "ENGL",
		"Level": "2050",
		"Hours": "3",
		"CRN": "40064",
		"Meeting": [
			{
				"days": "TT",
				"hours": "01:40  PM - 02:55  PM"
			}
		],
		"Campus": "UT Chattanooga"
	},
	{
		"Title": "Topics in Lit: The Western in Fiction and Film",
		"Subject": "ENGL",
		"Level": "2060R",
		"Hours": "3",
		"CRN": "43244",
		"Meeting": [
			{
				"days": "MW",
				"hours": "02:00  PM - 03:15  PM"
			}
		],
		"Campus": "UT Chattanooga"
	},
	{
		"Title": "Topics in Literature: Greek Myth and the Hero",
		"Subject": "ENGL",
		"Level": "2060R",
		"Hours": "3",
		"CRN": "43245",
		"Meeting": [
			{
				"days": "",
				"hours": " - "
			}
		],
		"Campus": "UT Chattanooga"
	},
	{
		"Title": "Revolutionizing Intersectional Adolescence",
		"Subject": "ENGL",
		"Level": "2060R",
		"Hours": "3",
		"CRN": "43246",
		"Meeting": [
			{
				"days": "MW",
				"hours": "02:00  PM - 03:15  PM"
			}
		],
		"Campus": "UT Chattanooga"
	},
	{
		"Title": "Environmental Literature",
		"Subject": "ENGL",
		"Level": "2070R",
		"Hours": "3",
		"CRN": "42232",
		"Meeting": [
			{
				"days": "",
				"hours": " - "
			}
		],
		"Campus": "UT Chattanooga"
	},
	{
		"Title": "Race, Gender, and Video Games",
		"Subject": "ENGL",
		"Level": "2080R",
		"Hours": "3",
		"CRN": "43248",
		"Meeting": [
			{
				"days": "TT",
				"hours": "09:25  AM - 10:40  AM"
			}
		],
		"Campus": "UT Chattanooga"
	},
	{
		"Title": "YA Lit in the Age of Twitter",
		"Subject": "ENGL",
		"Level": "2080R",
		"Hours": "3",
		"CRN": "43250",
		"Meeting": [
			{
				"days": "MWF",
				"hours": "08:00  AM - 08:50  AM"
			}
		],
		"Campus": "UT Chattanooga"
	},
	{
		"Title": "Survey of American Literature",
		"Subject": "ENGL",
		"Level": "2130",
		"Hours": "3",
		"CRN": "43514",
		"Meeting": [
			{
				"days": "MWF",
				"hours": "10:00  AM - 10:50  AM"
			}
		],
		"Campus": "UT Chattanooga"
	},
	{
		"Title": "Survey of American Literature",
		"Subject": "ENGL",
		"Level": "2130",
		"Hours": "3",
		"CRN": "43515",
		"Meeting": [
			{
				"days": "MWF",
				"hours": "11:00  AM - 11:50  AM"
			}
		],
		"Campus": "UT Chattanooga"
	},
	{
		"Title": "Survey of British Literature",
		"Subject": "ENGL",
		"Level": "2230",
		"Hours": "3",
		"CRN": "40067",
		"Meeting": [
			{
				"days": "TT",
				"hours": "01:40  PM - 02:55  PM"
			}
		],
		"Campus": "UT Chattanooga"
	},
	{
		"Title": "Survey of British Literature",
		"Subject": "ENGL",
		"Level": "2230",
		"Hours": "3",
		"CRN": "40066",
		"Meeting": [
			{
				"days": "MWF",
				"hours": "11:00  AM - 11:50  AM"
			}
		],
		"Campus": "UT Chattanooga"
	},
	{
		"Title": "Children's Literature",
		"Subject": "ENGL",
		"Level": "2280",
		"Hours": "3",
		"CRN": "40070",
		"Meeting": [
			{
				"days": "MWF",
				"hours": "10:00  AM - 10:50  AM"
			}
		],
		"Campus": "UT Chattanooga"
	},
	{
		"Title": "Literature for the Adolescent",
		"Subject": "ENGL",
		"Level": "2290",
		"Hours": "3",
		"CRN": "40071",
		"Meeting": [
			{
				"days": "",
				"hours": " - "
			}
		],
		"Campus": "UTC Online"
	},
	{
		"Title": "Literature for the Adolescent",
		"Subject": "ENGL",
		"Level": "2290",
		"Hours": "3",
		"CRN": "41567",
		"Meeting": [
			{
				"days": "",
				"hours": " - "
			}
		],
		"Campus": "UTC Online"
	},
	{
		"Title": "Popular Fiction: Tolkien's Lord of the Rings",
		"Subject": "ENGL",
		"Level": "2510R",
		"Hours": "3",
		"CRN": "42734",
		"Meeting": [
			{
				"days": "MWF",
				"hours": "01:00  PM - 01:50  PM"
			}
		],
		"Campus": "UT Chattanooga"
	},
	{
		"Title": "Popular Fiction: Horror",
		"Subject": "ENGL",
		"Level": "2510R",
		"Hours": "3",
		"CRN": "42735",
		"Meeting": [
			{
				"days": "",
				"hours": " - "
			}
		],
		"Campus": "UT Chattanooga"
	},
	{
		"Title": "African-American Literature",
		"Subject": "ENGL",
		"Level": "2520",
		"Hours": "3",
		"CRN": "40069",
		"Meeting": [
			{
				"days": "TT",
				"hours": "09:25  AM - 10:40  AM"
			}
		],
		"Campus": "UT Chattanooga"
	},
	{
		"Title": "Creative Writing",
		"Subject": "ENGL",
		"Level": "2700",
		"Hours": "3",
		"CRN": "43067",
		"Meeting": [
			{
				"days": "MW",
				"hours": "02:00  PM - 03:15  PM"
			}
		],
		"Campus": "UT Chattanooga"
	},
	{
		"Title": "Creative Writing",
		"Subject": "ENGL",
		"Level": "2700",
		"Hours": "3",
		"CRN": "40072",
		"Meeting": [
			{
				"days": "MW",
				"hours": "03:25  PM - 04:40  PM"
			}
		],
		"Campus": "UT Chattanooga"
	},
	{
		"Title": "Creative Writing",
		"Subject": "ENGL",
		"Level": "2700",
		"Hours": "3",
		"CRN": "40951",
		"Meeting": [
			{
				"days": "TT",
				"hours": "08:00  AM - 09:15  AM"
			}
		],
		"Campus": "UT Chattanooga"
	},
	{
		"Title": "Creative Writing",
		"Subject": "ENGL",
		"Level": "2700",
		"Hours": "3",
		"CRN": "41033",
		"Meeting": [
			{
				"days": "TT",
				"hours": "09:25  AM - 10:40  AM"
			}
		],
		"Campus": "UT Chattanooga"
	},
	{
		"Title": "Creative Writing",
		"Subject": "ENGL",
		"Level": "2700",
		"Hours": "3",
		"CRN": "40574",
		"Meeting": [
			{
				"days": "TT",
				"hours": "01:40  PM - 02:55  PM"
			}
		],
		"Campus": "UT Chattanooga"
	},
	{
		"Title": "Creative Writing",
		"Subject": "ENGL",
		"Level": "2700",
		"Hours": "3",
		"CRN": "40073",
		"Meeting": [
			{
				"days": "MWF",
				"hours": "09:00  AM - 09:50  AM"
			}
		],
		"Campus": "UT Chattanooga"
	},
	{
		"Title": "Creative Writing",
		"Subject": "ENGL",
		"Level": "2700",
		"Hours": "3",
		"CRN": "41121",
		"Meeting": [
			{
				"days": "TT",
				"hours": "10:50  AM - 12:05  PM"
			}
		],
		"Campus": "UT Chattanooga"
	},
	{
		"Title": "Creative Writing",
		"Subject": "ENGL",
		"Level": "2700",
		"Hours": "3",
		"CRN": "40845",
		"Meeting": [
			{
				"days": "TT",
				"hours": "12:15  PM - 01:30  PM"
			}
		],
		"Campus": "UT Chattanooga"
	},
	{
		"Title": "Creative Writing",
		"Subject": "ENGL",
		"Level": "2700",
		"Hours": "3",
		"CRN": "40843",
		"Meeting": [
			{
				"days": "MW",
				"hours": "03:25  PM - 04:40  PM"
			}
		],
		"Campus": "UT Chattanooga"
	},
	{
		"Title": "Creative Writing",
		"Subject": "ENGL",
		"Level": "2700",
		"Hours": "3",
		"CRN": "40844",
		"Meeting": [
			{
				"days": "TT",
				"hours": "10:50  AM - 12:05  PM"
			}
		],
		"Campus": "UT Chattanooga"
	},
	{
		"Title": "Creative Writing",
		"Subject": "ENGL",
		"Level": "2700",
		"Hours": "3",
		"CRN": "41554",
		"Meeting": [
			{
				"days": "MWF",
				"hours": "01:00  PM - 01:50  PM"
			}
		],
		"Campus": "UT Chattanooga"
	},
	{
		"Title": "Creative Writing",
		"Subject": "ENGL",
		"Level": "2700",
		"Hours": "3",
		"CRN": "43251",
		"Meeting": [
			{
				"days": "MWF",
				"hours": "10:00  AM - 10:50  AM"
			}
		],
		"Campus": "UT Chattanooga"
	},
	{
		"Title": "Creative Writing",
		"Subject": "ENGL",
		"Level": "2700",
		"Hours": "3",
		"CRN": "43621",
		"Meeting": [
			{
				"days": "",
				"hours": " - "
			}
		],
		"Campus": "UT Chattanooga"
	},
	{
		"Title": "Creative Writing",
		"Subject": "ENGL",
		"Level": "2700",
		"Hours": "3",
		"CRN": "42997",
		"Meeting": [
			{
				"days": "MW",
				"hours": "12:00  PM - 12:50  PM"
			},
			{
				"days": "",
				"hours": " - "
			}
		],
		"Campus": "UT Chattanooga"
	},
	{
		"Title": "Creative Writing",
		"Subject": "ENGL",
		"Level": "2700",
		"Hours": "3",
		"CRN": "42998",
		"Meeting": [
			{
				"days": "MW",
				"hours": "11:00  AM - 11:50  AM"
			},
			{
				"days": "",
				"hours": " - "
			}
		],
		"Campus": "UT Chattanooga"
	},
	{
		"Title": "Scientific Writing",
		"Subject": "ENGL",
		"Level": "2820",
		"Hours": "3",
		"CRN": "41281",
		"Meeting": [
			{
				"days": "MW",
				"hours": "03:25  PM - 04:40  PM"
			}
		],
		"Campus": "UT Chattanooga"
	},
	{
		"Title": "Scientific Writing",
		"Subject": "ENGL",
		"Level": "2820",
		"Hours": "3",
		"CRN": "40847",
		"Meeting": [
			{
				"days": "MW",
				"hours": "02:00  PM - 03:15  PM"
			}
		],
		"Campus": "UT Chattanooga"
	},
	{
		"Title": "Scientific Writing",
		"Subject": "ENGL",
		"Level": "2820",
		"Hours": "3",
		"CRN": "42234",
		"Meeting": [
			{
				"days": "TT",
				"hours": "10:50  AM - 12:05  PM"
			}
		],
		"Campus": "UT Chattanooga"
	},
	{
		"Title": "Scientific Writing",
		"Subject": "ENGL",
		"Level": "2820",
		"Hours": "3",
		"CRN": "43066",
		"Meeting": [
			{
				"days": "TT",
				"hours": "09:25  AM - 10:40  AM"
			}
		],
		"Campus": "UT Chattanooga"
	},
	{
		"Title": "Scientific Writing",
		"Subject": "ENGL",
		"Level": "2820",
		"Hours": "3",
		"CRN": "43117",
		"Meeting": [
			{
				"days": "MW",
				"hours": "03:25  PM - 04:40  PM"
			}
		],
		"Campus": "UT Chattanooga"
	},
	{
		"Title": "Scientific Writing",
		"Subject": "ENGL",
		"Level": "2820",
		"Hours": "3",
		"CRN": "43333",
		"Meeting": [
			{
				"days": "MWF",
				"hours": "11:00  AM - 11:50  AM"
			}
		],
		"Campus": "UT Chattanooga"
	},
	{
		"Title": "Scientific Writing",
		"Subject": "ENGL",
		"Level": "2820",
		"Hours": "3",
		"CRN": "43850",
		"Meeting": [
			{
				"days": "",
				"hours": " - "
			}
		],
		"Campus": "UT Chattanooga"
	},
	{
		"Title": "Scientific Writing",
		"Subject": "ENGL",
		"Level": "2820",
		"Hours": "3",
		"CRN": "43851",
		"Meeting": [
			{
				"days": "",
				"hours": " - "
			}
		],
		"Campus": "UT Chattanooga"
	},
	{
		"Title": "Scientific Writing",
		"Subject": "ENGL",
		"Level": "2820",
		"Hours": "3",
		"CRN": "43993",
		"Meeting": [
			{
				"days": "",
				"hours": " - "
			}
		],
		"Campus": "UT Chattanooga"
	},
	{
		"Title": "Scientific Writing",
		"Subject": "ENGL",
		"Level": "2820",
		"Hours": "3",
		"CRN": "43627",
		"Meeting": [
			{
				"days": "",
				"hours": " - "
			}
		],
		"Campus": "UT Chattanooga"
	},
	{
		"Title": "Scientific Writing",
		"Subject": "ENGL",
		"Level": "2820",
		"Hours": "3",
		"CRN": "43316",
		"Meeting": [
			{
				"days": "",
				"hours": " - "
			}
		],
		"Campus": "UT Chattanooga"
	},
	{
		"Title": "Scientific Writing",
		"Subject": "ENGL",
		"Level": "2820",
		"Hours": "3",
		"CRN": "41298",
		"Meeting": [
			{
				"days": "",
				"hours": " - "
			}
		],
		"Campus": "UT Chattanooga"
	},
	{
		"Title": "Scientific Writing",
		"Subject": "ENGL",
		"Level": "2820",
		"Hours": "3",
		"CRN": "40075",
		"Meeting": [
			{
				"days": "",
				"hours": " - "
			}
		],
		"Campus": "UT Chattanooga"
	},
	{
		"Title": "Writing for the Social Sciences",
		"Subject": "ENGL",
		"Level": "2830",
		"Hours": "3",
		"CRN": "40078",
		"Meeting": [
			{
				"days": "",
				"hours": " - "
			}
		],
		"Campus": "UT Chattanooga"
	},
	{
		"Title": "Professional Writing",
		"Subject": "ENGL",
		"Level": "2880",
		"Hours": "3",
		"CRN": "41034",
		"Meeting": [
			{
				"days": "",
				"hours": " - "
			}
		],
		"Campus": "UT Chattanooga"
	},
	{
		"Title": "Professional Writing",
		"Subject": "ENGL",
		"Level": "2880",
		"Hours": "3",
		"CRN": "40716",
		"Meeting": [
			{
				"days": "W",
				"hours": "05:30  PM - 08:00  PM"
			}
		],
		"Campus": "UT Chattanooga"
	},
	{
		"Title": "Professional Writing",
		"Subject": "ENGL",
		"Level": "2880",
		"Hours": "3",
		"CRN": "41365",
		"Meeting": [
			{
				"days": "MW",
				"hours": "03:25  PM - 04:40  PM"
			}
		],
		"Campus": "UT Chattanooga"
	},
	{
		"Title": "Professional Writing",
		"Subject": "ENGL",
		"Level": "2880",
		"Hours": "3",
		"CRN": "40637",
		"Meeting": [
			{
				"days": "",
				"hours": " - "
			}
		],
		"Campus": "UT Chattanooga"
	},
	{
		"Title": "Professional Writing",
		"Subject": "ENGL",
		"Level": "2880",
		"Hours": "3",
		"CRN": "43118",
		"Meeting": [
			{
				"days": "",
				"hours": " - "
			}
		],
		"Campus": "UT Chattanooga"
	},
	{
		"Title": "Professional Writing",
		"Subject": "ENGL",
		"Level": "2880",
		"Hours": "3",
		"CRN": "43994",
		"Meeting": [
			{
				"days": "",
				"hours": " - "
			}
		],
		"Campus": "UT Chattanooga"
	},
	{
		"Title": "Professional Writing",
		"Subject": "ENGL",
		"Level": "2880",
		"Hours": "3",
		"CRN": "43848",
		"Meeting": [
			{
				"days": "",
				"hours": " - "
			}
		],
		"Campus": "UT Chattanooga"
	},
	{
		"Title": "Professional Writing",
		"Subject": "ENGL",
		"Level": "2880",
		"Hours": "3",
		"CRN": "43849",
		"Meeting": [
			{
				"days": "",
				"hours": " - "
			}
		],
		"Campus": "UT Chattanooga"
	},
	{
		"Title": "Professional Writing",
		"Subject": "ENGL",
		"Level": "2880",
		"Hours": "3",
		"CRN": "43320",
		"Meeting": [
			{
				"days": "",
				"hours": " - "
			}
		],
		"Campus": "UT Chattanooga"
	},
	{
		"Title": "Professional Writing",
		"Subject": "ENGL",
		"Level": "2880",
		"Hours": "3",
		"CRN": "43321",
		"Meeting": [
			{
				"days": "",
				"hours": " - "
			}
		],
		"Campus": "UT Chattanooga"
	},
	{
		"Title": "Professional Writing",
		"Subject": "ENGL",
		"Level": "2880",
		"Hours": "3",
		"CRN": "41503",
		"Meeting": [
			{
				"days": "",
				"hours": " - "
			}
		],
		"Campus": "UT Chattanooga"
	},
	{
		"Title": "Professional Writing",
		"Subject": "ENGL",
		"Level": "2880",
		"Hours": "3",
		"CRN": "40848",
		"Meeting": [
			{
				"days": "",
				"hours": " - "
			}
		],
		"Campus": "UT Chattanooga"
	},
	{
		"Title": "Professional Writing",
		"Subject": "ENGL",
		"Level": "2880",
		"Hours": "3",
		"CRN": "40805",
		"Meeting": [
			{
				"days": "",
				"hours": " - "
			}
		],
		"Campus": "UT Chattanooga"
	},
	{
		"Title": "Professional Writing",
		"Subject": "ENGL",
		"Level": "2880",
		"Hours": "3",
		"CRN": "40952",
		"Meeting": [
			{
				"days": "",
				"hours": " - "
			}
		],
		"Campus": "UT Chattanooga"
	},
	{
		"Title": "Professional Writing",
		"Subject": "ENGL",
		"Level": "2880",
		"Hours": "3",
		"CRN": "40954",
		"Meeting": [
			{
				"days": "",
				"hours": " - "
			}
		],
		"Campus": "UT Chattanooga"
	},
	{
		"Title": "Professional Writing",
		"Subject": "ENGL",
		"Level": "2880",
		"Hours": "3",
		"CRN": "40953",
		"Meeting": [
			{
				"days": "",
				"hours": " - "
			}
		],
		"Campus": "UT Chattanooga"
	},
	{
		"Title": "Professional Writing",
		"Subject": "ENGL",
		"Level": "2880",
		"Hours": "3",
		"CRN": "40955",
		"Meeting": [
			{
				"days": "",
				"hours": " - "
			}
		],
		"Campus": "UT Chattanooga"
	},
	{
		"Title": "Literatures of Early America",
		"Subject": "ENGL",
		"Level": "3110",
		"Hours": "3",
		"CRN": "43632",
		"Meeting": [
			{
				"days": "MW",
				"hours": "02:00  PM - 03:15  PM"
			}
		],
		"Campus": "UT Chattanooga"
	},
	{
		"Title": "American Lit Since WWII",
		"Subject": "ENGL",
		"Level": "3150",
		"Hours": "3",
		"CRN": "43252",
		"Meeting": [
			{
				"days": "TT",
				"hours": "12:15  PM - 01:30  PM"
			}
		],
		"Campus": "UT Chattanooga"
	},
	{
		"Title": "Shakespeare",
		"Subject": "ENGL",
		"Level": "3340",
		"Hours": "3",
		"CRN": "40080",
		"Meeting": [
			{
				"days": "TT",
				"hours": "09:25  AM - 10:40  AM"
			}
		],
		"Campus": "UT Chattanooga"
	},
	{
		"Title": "Shakespeare",
		"Subject": "ENGL",
		"Level": "3340",
		"Hours": "3",
		"CRN": "40081",
		"Meeting": [
			{
				"days": "TT",
				"hours": "01:40  PM - 02:55  PM"
			}
		],
		"Campus": "UT Chattanooga"
	},
	{
		"Title": "English Romantics",
		"Subject": "ENGL",
		"Level": "3380",
		"Hours": "3",
		"CRN": "43254",
		"Meeting": [
			{
				"days": "MW",
				"hours": "03:25  PM - 04:40  PM"
			}
		],
		"Campus": "UT Chattanooga"
	},
	{
		"Title": "Reading Like a Writer: The Short Lyric Tradition",
		"Subject": "ENGL",
		"Level": "3720",
		"Hours": "3",
		"CRN": "43517",
		"Meeting": [
			{
				"days": "M",
				"hours": "05:30  PM - 08:00  PM"
			}
		],
		"Campus": "UT Chattanooga"
	},
	{
		"Title": "Creative Writing: Nonfiction",
		"Subject": "ENGL",
		"Level": "3740R",
		"Hours": "3",
		"CRN": "42242",
		"Meeting": [
			{
				"days": "TT",
				"hours": "10:50  AM - 12:05  PM"
			}
		],
		"Campus": "UT Chattanooga"
	},
	{
		"Title": "Creative Writing: Poetry",
		"Subject": "ENGL",
		"Level": "3750R",
		"Hours": "3",
		"CRN": "42244",
		"Meeting": [
			{
				"days": "TT",
				"hours": "12:15  PM - 01:30  PM"
			}
		],
		"Campus": "UT Chattanooga"
	},
	{
		"Title": "Creative Writing: Fiction",
		"Subject": "ENGL",
		"Level": "3760R",
		"Hours": "3",
		"CRN": "42245",
		"Meeting": [
			{
				"days": "TT",
				"hours": "01:40  PM - 02:55  PM"
			}
		],
		"Campus": "UT Chattanooga"
	},
	{
		"Title": "Creative Writing: Fiction",
		"Subject": "ENGL",
		"Level": "3760R",
		"Hours": "3",
		"CRN": "42246",
		"Meeting": [
			{
				"days": "TT",
				"hours": "03:05  PM - 04:20  PM"
			}
		],
		"Campus": "UT Chattanooga"
	},
	{
		"Title": "Literary Editing and Publishing",
		"Subject": "ENGL",
		"Level": "3780R",
		"Hours": "3",
		"CRN": "42247",
		"Meeting": [
			{
				"days": "W",
				"hours": "02:00  PM - 04:30  PM"
			}
		],
		"Campus": "UT Chattanooga"
	},
	{
		"Title": "Contemporary English Grammar",
		"Subject": "ENGL",
		"Level": "3820",
		"Hours": "3",
		"CRN": "40548",
		"Meeting": [
			{
				"days": "W",
				"hours": "05:30  PM - 08:00  PM"
			}
		],
		"Campus": "UT Chattanooga"
	},
	{
		"Title": "Writing Beyond the Academy",
		"Subject": "ENGL",
		"Level": "3830",
		"Hours": "3",
		"CRN": "40079",
		"Meeting": [
			{
				"days": "TT",
				"hours": "10:50  AM - 12:05  PM"
			}
		],
		"Campus": "UT Chattanooga"
	},
	{
		"Title": "Writing Beyond the Academy",
		"Subject": "ENGL",
		"Level": "3830",
		"Hours": "3",
		"CRN": "42248",
		"Meeting": [
			{
				"days": "",
				"hours": " - "
			}
		],
		"Campus": "UT Chattanooga"
	},
	{
		"Title": "Persuasion & Propaganda",
		"Subject": "ENGL",
		"Level": "3850",
		"Hours": "3",
		"CRN": "40082",
		"Meeting": [
			{
				"days": "MW",
				"hours": "03:25  PM - 04:40  PM"
			}
		],
		"Campus": "UT Chattanooga"
	},
	{
		"Title": "Major American Figures: Faulkner",
		"Subject": "ENGL",
		"Level": "4270R",
		"Hours": "3",
		"CRN": "43256",
		"Meeting": [
			{
				"days": "W",
				"hours": "05:30  PM - 08:00  PM"
			}
		],
		"Campus": "UT Chattanooga"
	},
	{
		"Title": "Major British Figures: John Donne",
		"Subject": "ENGL",
		"Level": "4470R",
		"Hours": "3",
		"CRN": "43260",
		"Meeting": [
			{
				"days": "T",
				"hours": "05:30  PM - 08:00  PM"
			}
		],
		"Campus": "UT Chattanooga"
	},
	{
		"Title": "Fiction, Fashion and Feminism",
		"Subject": "ENGL",
		"Level": "4500",
		"Hours": "3",
		"CRN": "43542",
		"Meeting": [
			{
				"days": "T",
				"hours": "05:30  PM - 08:00  PM"
			}
		],
		"Campus": "UT Chattanooga"
	},
	{
		"Title": "History of the English Language",
		"Subject": "ENGL",
		"Level": "4650",
		"Hours": "3",
		"CRN": "40546",
		"Meeting": [
			{
				"days": "TT",
				"hours": "01:40  PM - 02:55  PM"
			}
		],
		"Campus": "UT Chattanooga"
	},
	{
		"Title": "Feminist Literary Criticism",
		"Subject": "ENGL",
		"Level": "4710",
		"Hours": "3",
		"CRN": "43518",
		"Meeting": [
			{
				"days": "TT",
				"hours": "03:05  PM - 04:20  PM"
			}
		],
		"Campus": "UT Chattanooga"
	},
	{
		"Title": "Writing for Teachers",
		"Subject": "ENGL",
		"Level": "4810",
		"Hours": "3",
		"CRN": "40083",
		"Meeting": [
			{
				"days": "MW",
				"hours": "02:00  PM - 03:15  PM"
			}
		],
		"Campus": "UT Chattanooga"
	},
	{
		"Title": "Major Issues in Rhetoric: Rhetoric, Food, and Culture",
		"Subject": "ENGL",
		"Level": "4870R",
		"Hours": "3",
		"CRN": "43268",
		"Meeting": [
			{
				"days": "T",
				"hours": "05:30  PM - 08:00  PM"
			}
		],
		"Campus": "UT Chattanooga"
	},
	{
		"Title": "Major Issues in Rhetoric: Dig Cultures and Activism",
		"Subject": "ENGL",
		"Level": "4870R",
		"Hours": "3",
		"CRN": "42252",
		"Meeting": [
			{
				"days": "T",
				"hours": "05:30  PM - 08:00  PM"
			}
		],
		"Campus": "UT Chattanooga"
	},
	{
		"Title": "Parody, Humor, and Satire",
		"Subject": "ENGL",
		"Level": "4900R",
		"Hours": "3",
		"CRN": "42253",
		"Meeting": [
			{
				"days": "TT",
				"hours": "03:05  PM - 04:20  PM"
			}
		],
		"Campus": "UT Chattanooga"
	},
	{
		"Title": "Writing Workshop: Flash Nonfiction",
		"Subject": "ENGL",
		"Level": "4910R",
		"Hours": "3",
		"CRN": "43709",
		"Meeting": [
			{
				"days": "TT",
				"hours": "12:15  PM - 01:30  PM"
			}
		],
		"Campus": "UT Chattanooga"
	},
	{
		"Title": "Novel Writing Workshop",
		"Subject": "ENGL",
		"Level": "4920R",
		"Hours": "3",
		"CRN": "42255",
		"Meeting": [
			{
				"days": "M",
				"hours": "05:30  PM - 08:00  PM"
			}
		],
		"Campus": "UT Chattanooga"
	},
	{
		"Title": "Speculative Fiction Workshop",
		"Subject": "ENGL",
		"Level": "4930R",
		"Hours": "3",
		"CRN": "42256",
		"Meeting": [
			{
				"days": "",
				"hours": " - "
			}
		],
		"Campus": "UT Chattanooga"
	},
	{
		"Title": "Poetry Workshop",
		"Subject": "ENGL",
		"Level": "4940R",
		"Hours": "3",
		"CRN": "43282",
		"Meeting": [
			{
				"days": "W",
				"hours": "05:30  PM - 08:00  PM"
			}
		],
		"Campus": "UT Chattanooga"
	},
	{
		"Title": "Internship",
		"Subject": "ENGL",
		"Level": "4960R",
		"Hours": "3",
		"CRN": "42257",
		"Meeting": [
			{
				"days": "",
				"hours": " - "
			}
		],
		"Campus": "UT Chattanooga"
	},
	{
		"Title": "Senior Seminar: From Plate to Page",
		"Subject": "ENGL",
		"Level": "4980",
		"Hours": "3",
		"CRN": "40712",
		"Meeting": [
			{
				"days": "TT",
				"hours": "09:25  AM - 10:40  AM"
			}
		],
		"Campus": "UT Chattanooga"
	},
	{
		"Title": "Departmental Thesis",
		"Subject": "ENGL",
		"Level": "4995R",
		"Hours": "1 TO 3",
		"CRN": "43738",
		"Meeting": [
			{
				"days": "",
				"hours": " - "
			}
		],
		"Campus": "UT Chattanooga"
	},
	{
		"Title": "Departmental Thesis",
		"Subject": "ENGL",
		"Level": "4995R",
		"Hours": "1 TO 3",
		"CRN": "43764",
		"Meeting": [
			{
				"days": "",
				"hours": " - "
			}
		],
		"Campus": "UT Chattanooga"
	},
	{
		"Title": "Departmental Thesis",
		"Subject": "ENGL",
		"Level": "4995R",
		"Hours": "1 TO 3",
		"CRN": "43765",
		"Meeting": [
			{
				"days": "",
				"hours": " - "
			}
		],
		"Campus": "UT Chattanooga"
	},
	{
		"Title": "Departmental Thesis",
		"Subject": "ENGL",
		"Level": "4995R",
		"Hours": "1 TO 3",
		"CRN": "43766",
		"Meeting": [
			{
				"days": "",
				"hours": " - "
			}
		],
		"Campus": "UT Chattanooga"
	},
	{
		"Title": "Departmental Thesis",
		"Subject": "ENGL",
		"Level": "4995R",
		"Hours": "1 TO 3",
		"CRN": "43767",
		"Meeting": [
			{
				"days": "",
				"hours": " - "
			}
		],
		"Campus": "UT Chattanooga"
	},
	{
		"Title": "Departmental Thesis",
		"Subject": "ENGL",
		"Level": "4995R",
		"Hours": "1 TO 3",
		"CRN": "43768",
		"Meeting": [
			{
				"days": "",
				"hours": " - "
			}
		],
		"Campus": "UT Chattanooga"
	},
	{
		"Title": "Individual Studies",
		"Subject": "ENGL",
		"Level": "4998R",
		"Hours": "1 TO 9",
		"CRN": "42936",
		"Meeting": [
			{
				"days": "",
				"hours": " - "
			}
		],
		"Campus": "UT Chattanooga"
	},
	{
		"Title": "Introduction to Graduate Studies in English: Methodology and Bibliography",
		"Subject": "ENGL",
		"Level": "5000",
		"Hours": "3",
		"CRN": "40645",
		"Meeting": [
			{
				"days": "M",
				"hours": "05:30  PM - 08:00  PM"
			}
		],
		"Campus": "UT Chattanooga"
	},
	{
		"Title": "Teaching College Writing",
		"Subject": "ENGL",
		"Level": "5270",
		"Hours": "3",
		"CRN": "41564",
		"Meeting": [
			{
				"days": "W",
				"hours": "05:30  PM - 07:00  PM"
			}
		],
		"Campus": "UTC Online"
	},
	{
		"Title": "Advanced Internship in Writing",
		"Subject": "ENGL",
		"Level": "5290R",
		"Hours": "3",
		"CRN": "43856",
		"Meeting": [
			{
				"days": "",
				"hours": " - "
			}
		],
		"Campus": "UT Chattanooga"
	},
	{
		"Title": "Novel Writing Workshop",
		"Subject": "ENGL",
		"Level": "5500R",
		"Hours": "3",
		"CRN": "41366",
		"Meeting": [
			{
				"days": "M",
				"hours": "05:30  PM - 07:00  PM"
			}
		],
		"Campus": "UTC Online"
	},
	{
		"Title": "Poetry Workshop",
		"Subject": "ENGL",
		"Level": "5520",
		"Hours": "3",
		"CRN": "43702",
		"Meeting": [
			{
				"days": "W",
				"hours": "05:30  PM - 08:00  PM"
			}
		],
		"Campus": "UT Chattanooga"
	},
	{
		"Title": "Speculative Fiction Workshop",
		"Subject": "ENGL",
		"Level": "5530R",
		"Hours": "3",
		"CRN": "41566",
		"Meeting": [
			{
				"days": "",
				"hours": " - "
			}
		],
		"Campus": "UT Chattanooga"
	},
	{
		"Title": "Seminar in a Major Figure: Faulkner",
		"Subject": "ENGL",
		"Level": "5850R",
		"Hours": "3",
		"CRN": "43283",
		"Meeting": [
			{
				"days": "W",
				"hours": "05:30  PM - 08:00  PM"
			}
		],
		"Campus": "UT Chattanooga"
	},
	{
		"Title": "Seminar in a Major Figure: John Donne",
		"Subject": "ENGL",
		"Level": "5850R",
		"Hours": "3",
		"CRN": "43284",
		"Meeting": [
			{
				"days": "T",
				"hours": "05:30  PM - 08:00  PM"
			}
		],
		"Campus": "UT Chattanooga"
	},
	{
		"Title": "Parody, Humor, and Satire",
		"Subject": "ENGL",
		"Level": "5950R",
		"Hours": "3",
		"CRN": "43701",
		"Meeting": [
			{
				"days": "TT",
				"hours": "03:05  PM - 04:00  PM"
			}
		],
		"Campus": "UT Chattanooga"
	},
	{
		"Title": "Workshop: Writing Flas Nonfiction",
		"Subject": "ENGL",
		"Level": "5950R",
		"Hours": "3",
		"CRN": "43710",
		"Meeting": [
			{
				"days": "TT",
				"hours": "12:15  PM - 01:30  PM"
			}
		],
		"Campus": "UT Chattanooga"
	},
	{
		"Title": "Digital Culture and Activism",
		"Subject": "ENGL",
		"Level": "5970R",
		"Hours": "3",
		"CRN": "43700",
		"Meeting": [
			{
				"days": "T",
				"hours": "05:30  PM - 08:00  PM"
			}
		],
		"Campus": "UT Chattanooga"
	},
	{
		"Title": "Rhetoric, Food, and Culture",
		"Subject": "ENGL",
		"Level": "5970R",
		"Hours": "3",
		"CRN": "43703",
		"Meeting": [
			{
				"days": "T",
				"hours": "05:30  PM - 08:00  PM"
			}
		],
		"Campus": "UT Chattanooga"
	},
	{
		"Title": "Thesis",
		"Subject": "ENGL",
		"Level": "5999R",
		"Hours": "1 TO 6",
		"CRN": "43726",
		"Meeting": [
			{
				"days": "",
				"hours": " - "
			}
		],
		"Campus": "UT Chattanooga"
	},
	{
		"Title": "Thesis",
		"Subject": "ENGL",
		"Level": "5999R",
		"Hours": "1 TO 6",
		"CRN": "43727",
		"Meeting": [
			{
				"days": "",
				"hours": " - "
			}
		],
		"Campus": "UT Chattanooga"
	},
	{
		"Title": "Thesis",
		"Subject": "ENGL",
		"Level": "5999R",
		"Hours": "1 TO 6",
		"CRN": "43728",
		"Meeting": [
			{
				"days": "",
				"hours": " - "
			}
		],
		"Campus": "UT Chattanooga"
	},
	{
		"Title": "Thesis",
		"Subject": "ENGL",
		"Level": "5999R",
		"Hours": "1 TO 6",
		"CRN": "43729",
		"Meeting": [
			{
				"days": "",
				"hours": " - "
			}
		],
		"Campus": "UT Chattanooga"
	},
	{
		"Title": "Thesis",
		"Subject": "ENGL",
		"Level": "5999R",
		"Hours": "1 TO 6",
		"CRN": "43805",
		"Meeting": [
			{
				"days": "",
				"hours": " - "
			}
		],
		"Campus": "UT Chattanooga"
	},
	{
		"Title": "Thesis",
		"Subject": "ENGL",
		"Level": "5999R",
		"Hours": "1 TO 6",
		"CRN": "43806",
		"Meeting": [
			{
				"days": "",
				"hours": " - "
			}
		],
		"Campus": "UT Chattanooga"
	},
	{
		"Title": "Thesis",
		"Subject": "ENGL",
		"Level": "5999R",
		"Hours": "1 TO 6",
		"CRN": "43807",
		"Meeting": [
			{
				"days": "",
				"hours": " - "
			}
		],
		"Campus": "UT Chattanooga"
	},
	{
		"Title": "Thesis",
		"Subject": "ENGL",
		"Level": "5999R",
		"Hours": "1 TO 6",
		"CRN": "43826",
		"Meeting": [
			{
				"days": "",
				"hours": " - "
			}
		],
		"Campus": "UT Chattanooga"
	},
	{
		"Title": "Thesis",
		"Subject": "ENGL",
		"Level": "5999R",
		"Hours": "3",
		"CRN": "43974",
		"Meeting": [
			{
				"days": "",
				"hours": " - "
			}
		],
		"Campus": "UT Chattanooga"
	},
	{
		"Title": "Thesis",
		"Subject": "ENGL",
		"Level": "5999R",
		"Hours": "2",
		"CRN": "44004",
		"Meeting": [
			{
				"days": "",
				"hours": " - "
			}
		],
		"Campus": "UT Chattanooga"
	},
	{
		"Title": "Thesis",
		"Subject": "ENGL",
		"Level": "5999R",
		"Hours": "1 TO 6",
		"CRN": "44031",
		"Meeting": [
			{
				"days": "",
				"hours": " - "
			}
		],
		"Campus": "UT Chattanooga"
	}
]