[
	{
		"Title": "Electrical and Electronic Circuits",
		"Subject": "ETME",
		"Level": "1100",
		"Hours": "3",
		"CRN": "43845",
		"Meeting": [
			{
				"days": "TT",
				"hours": "10:50  AM - 12:05  PM"
			}
		],
		"Campus": "UT Chattanooga"
	},
	{
		"Title": "Introduction to Mechatronics Engineering Technology",
		"Subject": "ETME",
		"Level": "2100",
		"Hours": "3",
		"CRN": "42146",
		"Meeting": [
			{
				"days": "TT",
				"hours": "03:05  PM - 04:20  PM"
			}
		],
		"Campus": "UT Chattanooga"
	},
	{
		"Title": "Principles of Mechanical Systems",
		"Subject": "ETME",
		"Level": "2130",
		"Hours": "3",
		"CRN": "43714",
		"Meeting": [
			{
				"days": "MW",
				"hours": "12:00  PM - 01:15  PM"
			}
		],
		"Campus": "UT Chattanooga"
	},
	{
		"Title": "Integrated Mechatronics Systems I",
		"Subject": "ETME",
		"Level": "4110",
		"Hours": "3",
		"CRN": "42148",
		"Meeting": [
			{
				"days": "W",
				"hours": "05:30  PM - 08:00  PM"
			}
		],
		"Campus": "UT Chattanooga"
	},
	{
		"Title": "Applications of Thermal & Fluid Systems",
		"Subject": "ETME",
		"Level": "4120",
		"Hours": "3",
		"CRN": "42149",
		"Meeting": [
			{
				"days": "MW",
				"hours": "02:00  PM - 03:15  PM"
			}
		],
		"Campus": "UT Chattanooga"
	},
	{
		"Title": "Applied Electric Power & Machinery",
		"Subject": "ETME",
		"Level": "4130",
		"Hours": "3",
		"CRN": "42150",
		"Meeting": [
			{
				"days": "MW",
				"hours": "03:25  PM - 04:40  PM"
			}
		],
		"Campus": "UT Chattanooga"
	},
	{
		"Title": "Integrated Mechatronics Systems II",
		"Subject": "ETME",
		"Level": "4210",
		"Hours": "3",
		"CRN": "43685",
		"Meeting": [
			{
				"days": "T",
				"hours": "05:30  PM - 08:00  PM"
			}
		],
		"Campus": "UT Chattanooga"
	},
	{
		"Title": "Electrical and Electronic Circuits",
		"Subject": "ETME",
		"Level": "4999R",
		"Hours": "3",
		"CRN": "43327",
		"Meeting": [
			{
				"days": "TT",
				"hours": "10:50  AM - 12:05  PM"
			}
		],
		"Campus": "UT Chattanooga"
	},
	{
		"Title": "Principles of Mechanical Systems",
		"Subject": "ETME",
		"Level": "4999R",
		"Hours": "3",
		"CRN": "43328",
		"Meeting": [
			{
				"days": "MW",
				"hours": "12:15  PM - 01:15  PM"
			}
		],
		"Campus": "UT Chattanooga"
	}
]