[
	{
		"Title": "Science of Sustainability",
		"Subject": "INTS",
		"Level": "1110",
		"Hours": "3",
		"CRN": "41926",
		"Meeting": [
			{
				"days": "",
				"hours": " - "
			}
		],
		"Campus": "UTC Online"
	},
	{
		"Title": "Science of Sustainability",
		"Subject": "INTS",
		"Level": "1110",
		"Hours": "3",
		"CRN": "41309",
		"Meeting": [
			{
				"days": "",
				"hours": " - "
			}
		],
		"Campus": "UTC Online"
	},
	{
		"Title": "Science of Sustainability",
		"Subject": "INTS",
		"Level": "1110",
		"Hours": "3",
		"CRN": "42207",
		"Meeting": [
			{
				"days": "",
				"hours": " - "
			}
		],
		"Campus": "UTC Online"
	},
	{
		"Title": "Science of Sustainability",
		"Subject": "INTS",
		"Level": "1110",
		"Hours": "3",
		"CRN": "43014",
		"Meeting": [
			{
				"days": "",
				"hours": " - "
			}
		],
		"Campus": "UTC Online"
	},
	{
		"Title": "Science of Sustainability",
		"Subject": "INTS",
		"Level": "1110",
		"Hours": "3",
		"CRN": "43049",
		"Meeting": [
			{
				"days": "",
				"hours": " - "
			}
		],
		"Campus": "UTC Online"
	},
	{
		"Title": "Science of Sustainability",
		"Subject": "INTS",
		"Level": "1110",
		"Hours": "3",
		"CRN": "43626",
		"Meeting": [
			{
				"days": "",
				"hours": " - "
			}
		],
		"Campus": "UTC Online"
	},
	{
		"Title": "Integrated Studies Senior Portfolio",
		"Subject": "INTS",
		"Level": "4900",
		"Hours": "3",
		"CRN": "41088",
		"Meeting": [
			{
				"days": "T",
				"hours": "05:00  PM - 07:00  PM"
			},
			{
				"days": "T",
				"hours": "05:00  PM - 07:00  PM"
			},
			{
				"days": "",
				"hours": " - "
			}
		],
		"Campus": "UTC Online"
	},
	{
		"Title": "Departmental Thesis",
		"Subject": "INTS",
		"Level": "4995R",
		"Hours": "1 TO 3",
		"CRN": "43777",
		"Meeting": [
			{
				"days": "",
				"hours": " - "
			}
		],
		"Campus": "UT Chattanooga"
	}
]