[
	{
		"Title": "Math in the Modern World",
		"Subject": "MATH",
		"Level": "1010",
		"Hours": "3",
		"CRN": "40234",
		"Meeting": [
			{
				"days": "MWF",
				"hours": "09:00  AM - 09:50  AM"
			}
		],
		"Campus": "UT Chattanooga"
	},
	{
		"Title": "Math in the Modern World",
		"Subject": "MATH",
		"Level": "1010",
		"Hours": "3",
		"CRN": "40235",
		"Meeting": [
			{
				"days": "MWF",
				"hours": "11:00  AM - 11:50  AM"
			}
		],
		"Campus": "UT Chattanooga"
	},
	{
		"Title": "Math in the Modern World",
		"Subject": "MATH",
		"Level": "1010",
		"Hours": "3",
		"CRN": "41043",
		"Meeting": [
			{
				"days": "MWF",
				"hours": "12:00  PM - 12:50  PM"
			}
		],
		"Campus": "UT Chattanooga"
	},
	{
		"Title": "Math in the Modern World",
		"Subject": "MATH",
		"Level": "1010",
		"Hours": "3",
		"CRN": "41314",
		"Meeting": [
			{
				"days": "",
				"hours": " - "
			}
		],
		"Campus": "UT Chattanooga"
	},
	{
		"Title": "Math in the Modern World",
		"Subject": "MATH",
		"Level": "1010",
		"Hours": "3",
		"CRN": "41794",
		"Meeting": [
			{
				"days": "",
				"hours": " - "
			}
		],
		"Campus": "UT Chattanooga"
	},
	{
		"Title": "College Algebra",
		"Subject": "MATH",
		"Level": "1130",
		"Hours": "3",
		"CRN": "40238",
		"Meeting": [
			{
				"days": "M",
				"hours": "08:00  AM - 08:50  AM"
			},
			{
				"days": "",
				"hours": " - "
			}
		],
		"Campus": "UT Chattanooga"
	},
	{
		"Title": "College Algebra",
		"Subject": "MATH",
		"Level": "1130",
		"Hours": "3",
		"CRN": "43921",
		"Meeting": [
			{
				"days": "M",
				"hours": "08:00  AM - 08:50  AM"
			},
			{
				"days": "",
				"hours": " - "
			}
		],
		"Campus": "UT Chattanooga"
	},
	{
		"Title": "College Algebra",
		"Subject": "MATH",
		"Level": "1130",
		"Hours": "3",
		"CRN": "40240",
		"Meeting": [
			{
				"days": "W",
				"hours": "08:00  AM - 08:50  AM"
			},
			{
				"days": "",
				"hours": " - "
			}
		],
		"Campus": "UT Chattanooga"
	},
	{
		"Title": "College Algebra",
		"Subject": "MATH",
		"Level": "1130",
		"Hours": "3",
		"CRN": "43922",
		"Meeting": [
			{
				"days": "W",
				"hours": "08:00  AM - 08:50  AM"
			},
			{
				"days": "",
				"hours": " - "
			}
		],
		"Campus": "UT Chattanooga"
	},
	{
		"Title": "College Algebra",
		"Subject": "MATH",
		"Level": "1130",
		"Hours": "3",
		"CRN": "43395",
		"Meeting": [
			{
				"days": "F",
				"hours": "08:00  AM - 08:50  AM"
			},
			{
				"days": "",
				"hours": " - "
			}
		],
		"Campus": "UT Chattanooga"
	},
	{
		"Title": "College Algebra",
		"Subject": "MATH",
		"Level": "1130",
		"Hours": "3",
		"CRN": "43923",
		"Meeting": [
			{
				"days": "F",
				"hours": "08:00  AM - 08:50  AM"
			},
			{
				"days": "",
				"hours": " - "
			}
		],
		"Campus": "UT Chattanooga"
	},
	{
		"Title": "College Algebra",
		"Subject": "MATH",
		"Level": "1130",
		"Hours": "3",
		"CRN": "40258",
		"Meeting": [
			{
				"days": "M",
				"hours": "09:00  AM - 09:50  AM"
			},
			{
				"days": "",
				"hours": " - "
			}
		],
		"Campus": "UT Chattanooga"
	},
	{
		"Title": "College Algebra",
		"Subject": "MATH",
		"Level": "1130",
		"Hours": "3",
		"CRN": "43924",
		"Meeting": [
			{
				"days": "M",
				"hours": "09:00  AM - 09:50  AM"
			},
			{
				"days": "",
				"hours": " - "
			}
		],
		"Campus": "UT Chattanooga"
	},
	{
		"Title": "College Algebra",
		"Subject": "MATH",
		"Level": "1130",
		"Hours": "3",
		"CRN": "40262",
		"Meeting": [
			{
				"days": "W",
				"hours": "09:00  AM - 09:50  AM"
			},
			{
				"days": "",
				"hours": " - "
			}
		],
		"Campus": "UT Chattanooga"
	},
	{
		"Title": "College Algebra",
		"Subject": "MATH",
		"Level": "1130",
		"Hours": "3",
		"CRN": "43925",
		"Meeting": [
			{
				"days": "W",
				"hours": "09:00  AM - 09:50  AM"
			},
			{
				"days": "",
				"hours": " - "
			}
		],
		"Campus": "UT Chattanooga"
	},
	{
		"Title": "College Algebra",
		"Subject": "MATH",
		"Level": "1130",
		"Hours": "3",
		"CRN": "40263",
		"Meeting": [
			{
				"days": "F",
				"hours": "09:00  AM - 09:50  AM"
			},
			{
				"days": "",
				"hours": " - "
			}
		],
		"Campus": "UT Chattanooga"
	},
	{
		"Title": "College Algebra",
		"Subject": "MATH",
		"Level": "1130",
		"Hours": "3",
		"CRN": "43926",
		"Meeting": [
			{
				"days": "F",
				"hours": "09:00  AM - 09:50  AM"
			},
			{
				"days": "",
				"hours": " - "
			}
		],
		"Campus": "UT Chattanooga"
	},
	{
		"Title": "College Algebra",
		"Subject": "MATH",
		"Level": "1130",
		"Hours": "3",
		"CRN": "40569",
		"Meeting": [
			{
				"days": "M",
				"hours": "10:00  AM - 10:50  AM"
			},
			{
				"days": "",
				"hours": " - "
			}
		],
		"Campus": "UT Chattanooga"
	},
	{
		"Title": "College Algebra",
		"Subject": "MATH",
		"Level": "1130",
		"Hours": "3",
		"CRN": "43927",
		"Meeting": [
			{
				"days": "M",
				"hours": "10:00  AM - 10:50  AM"
			},
			{
				"days": "",
				"hours": " - "
			}
		],
		"Campus": "UT Chattanooga"
	},
	{
		"Title": "College Algebra",
		"Subject": "MATH",
		"Level": "1130",
		"Hours": "3",
		"CRN": "41061",
		"Meeting": [
			{
				"days": "W",
				"hours": "10:00  AM - 10:50  AM"
			},
			{
				"days": "",
				"hours": " - "
			}
		],
		"Campus": "UT Chattanooga"
	},
	{
		"Title": "College Algebra",
		"Subject": "MATH",
		"Level": "1130",
		"Hours": "3",
		"CRN": "43928",
		"Meeting": [
			{
				"days": "W",
				"hours": "10:00  AM - 10:50  AM"
			},
			{
				"days": "",
				"hours": " - "
			}
		],
		"Campus": "UT Chattanooga"
	},
	{
		"Title": "College Algebra",
		"Subject": "MATH",
		"Level": "1130",
		"Hours": "3",
		"CRN": "40775",
		"Meeting": [
			{
				"days": "F",
				"hours": "10:00  AM - 10:50  AM"
			},
			{
				"days": "",
				"hours": " - "
			}
		],
		"Campus": "UT Chattanooga"
	},
	{
		"Title": "College Algebra",
		"Subject": "MATH",
		"Level": "1130",
		"Hours": "3",
		"CRN": "43929",
		"Meeting": [
			{
				"days": "F",
				"hours": "10:00  AM - 10:50  AM"
			},
			{
				"days": "",
				"hours": " - "
			}
		],
		"Campus": "UT Chattanooga"
	},
	{
		"Title": "College Algebra",
		"Subject": "MATH",
		"Level": "1130",
		"Hours": "3",
		"CRN": "43398",
		"Meeting": [
			{
				"days": "M",
				"hours": "11:00  AM - 11:50  AM"
			},
			{
				"days": "",
				"hours": " - "
			}
		],
		"Campus": "UT Chattanooga"
	},
	{
		"Title": "College Algebra",
		"Subject": "MATH",
		"Level": "1130",
		"Hours": "3",
		"CRN": "43930",
		"Meeting": [
			{
				"days": "M",
				"hours": "11:00  AM - 11:50  AM"
			},
			{
				"days": "",
				"hours": " - "
			}
		],
		"Campus": "UT Chattanooga"
	},
	{
		"Title": "College Algebra",
		"Subject": "MATH",
		"Level": "1130",
		"Hours": "3",
		"CRN": "42413",
		"Meeting": [
			{
				"days": "W",
				"hours": "11:00  AM - 11:50  AM"
			},
			{
				"days": "",
				"hours": " - "
			}
		],
		"Campus": "UT Chattanooga"
	},
	{
		"Title": "College Algebra",
		"Subject": "MATH",
		"Level": "1130",
		"Hours": "3",
		"CRN": "43931",
		"Meeting": [
			{
				"days": "W",
				"hours": "11:00  AM - 11:50  AM"
			},
			{
				"days": "",
				"hours": " - "
			}
		],
		"Campus": "UT Chattanooga"
	},
	{
		"Title": "College Algebra",
		"Subject": "MATH",
		"Level": "1130",
		"Hours": "3",
		"CRN": "42416",
		"Meeting": [
			{
				"days": "F",
				"hours": "11:00  AM - 11:50  AM"
			},
			{
				"days": "",
				"hours": " - "
			}
		],
		"Campus": "UT Chattanooga"
	},
	{
		"Title": "College Algebra",
		"Subject": "MATH",
		"Level": "1130",
		"Hours": "3",
		"CRN": "43932",
		"Meeting": [
			{
				"days": "F",
				"hours": "11:00  AM - 11:50  AM"
			},
			{
				"days": "",
				"hours": " - "
			}
		],
		"Campus": "UT Chattanooga"
	},
	{
		"Title": "College Algebra",
		"Subject": "MATH",
		"Level": "1130",
		"Hours": "3",
		"CRN": "40971",
		"Meeting": [
			{
				"days": "W",
				"hours": "12:00  PM - 12:50  PM"
			},
			{
				"days": "",
				"hours": " - "
			}
		],
		"Campus": "UT Chattanooga"
	},
	{
		"Title": "College Algebra",
		"Subject": "MATH",
		"Level": "1130",
		"Hours": "3",
		"CRN": "41051",
		"Meeting": [
			{
				"days": "",
				"hours": " - "
			}
		],
		"Campus": "UT Chattanooga"
	},
	{
		"Title": "College Algebra",
		"Subject": "MATH",
		"Level": "1130",
		"Hours": "3",
		"CRN": "41095",
		"Meeting": [
			{
				"days": "",
				"hours": " - "
			}
		],
		"Campus": "UT Chattanooga"
	},
	{
		"Title": "College Algebra",
		"Subject": "MATH",
		"Level": "1130",
		"Hours": "3",
		"CRN": "42273",
		"Meeting": [
			{
				"days": "",
				"hours": " - "
			}
		],
		"Campus": "UT Chattanooga"
	},
	{
		"Title": "College Algebra",
		"Subject": "MATH",
		"Level": "1130",
		"Hours": "3",
		"CRN": "43675",
		"Meeting": [
			{
				"days": "",
				"hours": " - "
			}
		],
		"Campus": "UT Chattanooga"
	},
	{
		"Title": "College Algebra",
		"Subject": "MATH",
		"Level": "1130",
		"Hours": "3",
		"CRN": "43995",
		"Meeting": [
			{
				"days": "",
				"hours": " - "
			}
		],
		"Campus": "UT Chattanooga"
	},
	{
		"Title": "Precalculus I",
		"Subject": "MATH",
		"Level": "1710",
		"Hours": "3",
		"CRN": "40695",
		"Meeting": [
			{
				"days": "MWF",
				"hours": "10:00  AM - 10:50  AM"
			}
		],
		"Campus": "UT Chattanooga"
	},
	{
		"Title": "Precalculus I",
		"Subject": "MATH",
		"Level": "1710",
		"Hours": "3",
		"CRN": "40272",
		"Meeting": [
			{
				"days": "MWF",
				"hours": "01:00  PM - 01:50  PM"
			}
		],
		"Campus": "UT Chattanooga"
	},
	{
		"Title": "Precalculus I",
		"Subject": "MATH",
		"Level": "1710",
		"Hours": "3",
		"CRN": "41785",
		"Meeting": [
			{
				"days": "TT",
				"hours": "10:50  AM - 12:05  PM"
			}
		],
		"Campus": "UT Chattanooga"
	},
	{
		"Title": "Precalculus I",
		"Subject": "MATH",
		"Level": "1710",
		"Hours": "3",
		"CRN": "42005",
		"Meeting": [
			{
				"days": "TT",
				"hours": "01:40  PM - 02:55  PM"
			}
		],
		"Campus": "UT Chattanooga"
	},
	{
		"Title": "Precalculus II",
		"Subject": "MATH",
		"Level": "1720",
		"Hours": "3",
		"CRN": "40275",
		"Meeting": [
			{
				"days": "MWF",
				"hours": "09:00  AM - 09:50  AM"
			}
		],
		"Campus": "UT Chattanooga"
	},
	{
		"Title": "Precalculus II",
		"Subject": "MATH",
		"Level": "1720",
		"Hours": "3",
		"CRN": "40279",
		"Meeting": [
			{
				"days": "MWF",
				"hours": "12:00  PM - 12:50  PM"
			}
		],
		"Campus": "UT Chattanooga"
	},
	{
		"Title": "Precalculus II",
		"Subject": "MATH",
		"Level": "1720",
		"Hours": "3",
		"CRN": "41786",
		"Meeting": [
			{
				"days": "TT",
				"hours": "12:15  PM - 01:30  PM"
			}
		],
		"Campus": "UT Chattanooga"
	},
	{
		"Title": "Combined Precalculus",
		"Subject": "MATH",
		"Level": "1730",
		"Hours": "4",
		"CRN": "41471",
		"Meeting": [
			{
				"days": "MWF",
				"hours": "08:00  AM - 09:10  AM"
			}
		],
		"Campus": "UT Chattanooga"
	},
	{
		"Title": "Combined Precalculus",
		"Subject": "MATH",
		"Level": "1730",
		"Hours": "4",
		"CRN": "40869",
		"Meeting": [
			{
				"days": "MWF",
				"hours": "11:00  AM - 12:10  PM"
			}
		],
		"Campus": "UT Chattanooga"
	},
	{
		"Title": "Combined Precalculus",
		"Subject": "MATH",
		"Level": "1730",
		"Hours": "4",
		"CRN": "41787",
		"Meeting": [
			{
				"days": "MWF",
				"hours": "12:30  PM - 01:40  PM"
			}
		],
		"Campus": "UT Chattanooga"
	},
	{
		"Title": "Calculus for Management, Life, and Social Sciences",
		"Subject": "MATH",
		"Level": "1830",
		"Hours": "3",
		"CRN": "40264",
		"Meeting": [
			{
				"days": "",
				"hours": " - "
			}
		],
		"Campus": "UT Chattanooga"
	},
	{
		"Title": "Calculus for Management, Life, and Social Sciences",
		"Subject": "MATH",
		"Level": "1830",
		"Hours": "3",
		"CRN": "40265",
		"Meeting": [
			{
				"days": "MWF",
				"hours": "09:00  AM - 09:50  AM"
			}
		],
		"Campus": "UT Chattanooga"
	},
	{
		"Title": "Calculus for Management, Life, and Social Sciences",
		"Subject": "MATH",
		"Level": "1830",
		"Hours": "3",
		"CRN": "40267",
		"Meeting": [
			{
				"days": "MWF",
				"hours": "10:00  AM - 10:50  AM"
			}
		],
		"Campus": "UT Chattanooga"
	},
	{
		"Title": "Calculus for Management, Life, and Social Sciences",
		"Subject": "MATH",
		"Level": "1830",
		"Hours": "3",
		"CRN": "40271",
		"Meeting": [
			{
				"days": "MWF",
				"hours": "12:00  PM - 12:50  PM"
			}
		],
		"Campus": "UT Chattanooga"
	},
	{
		"Title": "Calculus for Management, Life, and Social Sciences",
		"Subject": "MATH",
		"Level": "1830",
		"Hours": "3",
		"CRN": "40870",
		"Meeting": [
			{
				"days": "",
				"hours": " - "
			}
		],
		"Campus": "UT Chattanooga"
	},
	{
		"Title": "Calculus for Management, Life, and Social Sciences",
		"Subject": "MATH",
		"Level": "1830",
		"Hours": "3",
		"CRN": "41612",
		"Meeting": [
			{
				"days": "",
				"hours": " - "
			}
		],
		"Campus": "UT Chattanooga"
	},
	{
		"Title": "Calculus For Management Life and Social Science",
		"Subject": "MATH",
		"Level": "1830",
		"Hours": "3",
		"CRN": "43399",
		"Meeting": [
			{
				"days": "",
				"hours": " - "
			}
		],
		"Campus": "UT Chattanooga"
	},
	{
		"Title": "Calculus for Management, Life, and Social Sciences",
		"Subject": "MATH",
		"Level": "1830",
		"Hours": "3",
		"CRN": "41096",
		"Meeting": [
			{
				"days": "",
				"hours": " - "
			}
		],
		"Campus": "UT Chattanooga"
	},
	{
		"Title": "Calculus for Management, Life, and Social Sciences",
		"Subject": "MATH",
		"Level": "1830",
		"Hours": "3",
		"CRN": "41315",
		"Meeting": [
			{
				"days": "",
				"hours": " - "
			}
		],
		"Campus": "UT Chattanooga"
	},
	{
		"Title": "Calculus for Management, Life, and Social Sciences",
		"Subject": "MATH",
		"Level": "1830",
		"Hours": "3",
		"CRN": "42274",
		"Meeting": [
			{
				"days": "",
				"hours": " - "
			}
		],
		"Campus": "UT Chattanooga"
	},
	{
		"Title": "Calculus with Analytic Geometry I",
		"Subject": "MATH",
		"Level": "1950",
		"Hours": "4",
		"CRN": "40760",
		"Meeting": [
			{
				"days": "MWF",
				"hours": "08:00  AM - 09:10  AM"
			}
		],
		"Campus": "UT Chattanooga"
	},
	{
		"Title": "Calculus with Analytic Geometry I",
		"Subject": "MATH",
		"Level": "1950",
		"Hours": "4",
		"CRN": "40762",
		"Meeting": [
			{
				"days": "",
				"hours": " - "
			}
		],
		"Campus": "UT Chattanooga"
	},
	{
		"Title": "Calculus with Analytic Geometry I",
		"Subject": "MATH",
		"Level": "1950",
		"Hours": "4",
		"CRN": "40765",
		"Meeting": [
			{
				"days": "MWF",
				"hours": "11:00  AM - 12:10  PM"
			}
		],
		"Campus": "UT Chattanooga"
	},
	{
		"Title": "Calculus with Analytic Geometry I",
		"Subject": "MATH",
		"Level": "1950",
		"Hours": "4",
		"CRN": "42430",
		"Meeting": [
			{
				"days": "",
				"hours": " - "
			}
		],
		"Campus": "UT Chattanooga"
	},
	{
		"Title": "Calculus with Analytic Geometry I",
		"Subject": "MATH",
		"Level": "1950",
		"Hours": "4",
		"CRN": "42431",
		"Meeting": [
			{
				"days": "",
				"hours": " - "
			}
		],
		"Campus": "UT Chattanooga"
	},
	{
		"Title": "Calculus with Analytic Geometry I",
		"Subject": "MATH",
		"Level": "1950",
		"Hours": "4",
		"CRN": "43037",
		"Meeting": [
			{
				"days": "",
				"hours": " - "
			}
		],
		"Campus": "UT Chattanooga"
	},
	{
		"Title": "Calculus with Analytic Geometry II",
		"Subject": "MATH",
		"Level": "1960",
		"Hours": "4",
		"CRN": "40766",
		"Meeting": [
			{
				"days": "MWF",
				"hours": "08:00  AM - 09:10  AM"
			}
		],
		"Campus": "UT Chattanooga"
	},
	{
		"Title": "Calculus with Analytic Geometry II",
		"Subject": "MATH",
		"Level": "1960",
		"Hours": "4",
		"CRN": "40767",
		"Meeting": [
			{
				"days": "MWF",
				"hours": "09:30  AM - 10:40  AM"
			}
		],
		"Campus": "UT Chattanooga"
	},
	{
		"Title": "Calculus with Analytic Geometry II",
		"Subject": "MATH",
		"Level": "1960",
		"Hours": "4",
		"CRN": "41934",
		"Meeting": [
			{
				"days": "MWF",
				"hours": "11:00  AM - 12:10  PM"
			}
		],
		"Campus": "UT Chattanooga"
	},
	{
		"Title": "Calculus with Analytic Geometry II",
		"Subject": "MATH",
		"Level": "1960",
		"Hours": "4",
		"CRN": "40986",
		"Meeting": [
			{
				"days": "MWF",
				"hours": "12:30  PM - 01:40  PM"
			}
		],
		"Campus": "UT Chattanooga"
	},
	{
		"Title": "Discrete Mathematics for Computer Science",
		"Subject": "MATH",
		"Level": "2030",
		"Hours": "3",
		"CRN": "40672",
		"Meeting": [
			{
				"days": "TT",
				"hours": "09:25  AM - 10:40  AM"
			}
		],
		"Campus": "UT Chattanooga"
	},
	{
		"Title": "Discrete Mathematics for Computer Science",
		"Subject": "MATH",
		"Level": "2030",
		"Hours": "3",
		"CRN": "42433",
		"Meeting": [
			{
				"days": "TT",
				"hours": "01:40  PM - 02:55  PM"
			}
		],
		"Campus": "UT Chattanooga"
	},
	{
		"Title": "Introductory Statistics",
		"Subject": "MATH",
		"Level": "2100",
		"Hours": "3",
		"CRN": "40291",
		"Meeting": [
			{
				"days": "MWF",
				"hours": "09:00  AM - 09:50  AM"
			}
		],
		"Campus": "UT Chattanooga"
	},
	{
		"Title": "Introductory Statistics",
		"Subject": "MATH",
		"Level": "2100",
		"Hours": "3",
		"CRN": "40292",
		"Meeting": [
			{
				"days": "MWF",
				"hours": "10:00  AM - 10:50  AM"
			}
		],
		"Campus": "UT Chattanooga"
	},
	{
		"Title": "Introductory Statistics",
		"Subject": "MATH",
		"Level": "2100",
		"Hours": "3",
		"CRN": "40293",
		"Meeting": [
			{
				"days": "MWF",
				"hours": "11:00  AM - 11:50  AM"
			}
		],
		"Campus": "UT Chattanooga"
	},
	{
		"Title": "Introductory Statistics",
		"Subject": "MATH",
		"Level": "2100",
		"Hours": "3",
		"CRN": "40294",
		"Meeting": [
			{
				"days": "MWF",
				"hours": "12:00  PM - 12:50  PM"
			}
		],
		"Campus": "UT Chattanooga"
	},
	{
		"Title": "Introductory Statistics",
		"Subject": "MATH",
		"Level": "2100",
		"Hours": "3",
		"CRN": "43402",
		"Meeting": [
			{
				"days": "MWF",
				"hours": "01:00  PM - 01:50  PM"
			}
		],
		"Campus": "UT Chattanooga"
	},
	{
		"Title": "Introductory Statistics",
		"Subject": "MATH",
		"Level": "2100",
		"Hours": "3",
		"CRN": "40295",
		"Meeting": [
			{
				"days": "",
				"hours": " - "
			}
		],
		"Campus": "UT Chattanooga"
	},
	{
		"Title": "Introductory Statistics",
		"Subject": "MATH",
		"Level": "2100",
		"Hours": "3",
		"CRN": "40296",
		"Meeting": [
			{
				"days": "",
				"hours": " - "
			}
		],
		"Campus": "UT Chattanooga"
	},
	{
		"Title": "Introductory Statistics",
		"Subject": "MATH",
		"Level": "2100",
		"Hours": "3",
		"CRN": "40872",
		"Meeting": [
			{
				"days": "",
				"hours": " - "
			}
		],
		"Campus": "UT Chattanooga"
	},
	{
		"Title": "Introductory Statistics",
		"Subject": "MATH",
		"Level": "2100",
		"Hours": "3",
		"CRN": "41614",
		"Meeting": [
			{
				"days": "",
				"hours": " - "
			}
		],
		"Campus": "UT Chattanooga"
	},
	{
		"Title": "Introductory Statistics",
		"Subject": "MATH",
		"Level": "2100",
		"Hours": "3",
		"CRN": "40973",
		"Meeting": [
			{
				"days": "",
				"hours": " - "
			}
		],
		"Campus": "UT Chattanooga"
	},
	{
		"Title": "Introductory Statistics",
		"Subject": "MATH",
		"Level": "2100",
		"Hours": "3",
		"CRN": "43401",
		"Meeting": [
			{
				"days": "",
				"hours": " - "
			}
		],
		"Campus": "UT Chattanooga"
	},
	{
		"Title": "Introductory Statistics",
		"Subject": "MATH",
		"Level": "2100",
		"Hours": "3",
		"CRN": "41788",
		"Meeting": [
			{
				"days": "",
				"hours": " - "
			}
		],
		"Campus": "UT Chattanooga"
	},
	{
		"Title": "Introductory Statistics",
		"Subject": "MATH",
		"Level": "2100",
		"Hours": "3",
		"CRN": "41316",
		"Meeting": [
			{
				"days": "",
				"hours": " - "
			}
		],
		"Campus": "UT Chattanooga"
	},
	{
		"Title": "Introductory Statistics",
		"Subject": "MATH",
		"Level": "2100",
		"Hours": "3",
		"CRN": "41317",
		"Meeting": [
			{
				"days": "",
				"hours": " - "
			}
		],
		"Campus": "UT Chattanooga"
	},
	{
		"Title": "Introductory Statistics",
		"Subject": "MATH",
		"Level": "2100",
		"Hours": "3",
		"CRN": "41930",
		"Meeting": [
			{
				"days": "",
				"hours": " - "
			}
		],
		"Campus": "UT Chattanooga"
	},
	{
		"Title": "Introductory Statistics",
		"Subject": "MATH",
		"Level": "2100",
		"Hours": "3",
		"CRN": "42586",
		"Meeting": [
			{
				"days": "",
				"hours": " - "
			}
		],
		"Campus": "UT Chattanooga"
	},
	{
		"Title": "Mathematics for Elementary & Middle School Teachers I",
		"Subject": "MATH",
		"Level": "2150",
		"Hours": "3",
		"CRN": "40299",
		"Meeting": [
			{
				"days": "MWF",
				"hours": "10:00  AM - 10:50  AM"
			}
		],
		"Campus": "UT Chattanooga"
	},
	{
		"Title": "Mathematics for Elementary & Middle School Teachers I",
		"Subject": "MATH",
		"Level": "2150",
		"Hours": "3",
		"CRN": "40304",
		"Meeting": [
			{
				"days": "MWF",
				"hours": "01:00  PM - 01:50  PM"
			}
		],
		"Campus": "UT Chattanooga"
	},
	{
		"Title": "Mathematics for Elementary & Middle School Teachers II",
		"Subject": "MATH",
		"Level": "2160",
		"Hours": "3",
		"CRN": "40306",
		"Meeting": [
			{
				"days": "",
				"hours": " - "
			}
		],
		"Campus": "UT Chattanooga"
	},
	{
		"Title": "Elementary Linear Algebra",
		"Subject": "MATH",
		"Level": "2200",
		"Hours": "3",
		"CRN": "42434",
		"Meeting": [
			{
				"days": "",
				"hours": " - "
			}
		],
		"Campus": "UT Chattanooga"
	},
	{
		"Title": "Elementary Linear Algebra",
		"Subject": "MATH",
		"Level": "2200",
		"Hours": "3",
		"CRN": "40297",
		"Meeting": [
			{
				"days": "",
				"hours": " - "
			}
		],
		"Campus": "UT Chattanooga"
	},
	{
		"Title": "Elementary Linear Algebra",
		"Subject": "MATH",
		"Level": "2200",
		"Hours": "3",
		"CRN": "40298",
		"Meeting": [
			{
				"days": "",
				"hours": " - "
			}
		],
		"Campus": "UT Chattanooga"
	},
	{
		"Title": "Elementary Linear Algebra",
		"Subject": "MATH",
		"Level": "2200",
		"Hours": "3",
		"CRN": "40769",
		"Meeting": [
			{
				"days": "",
				"hours": " - "
			}
		],
		"Campus": "UT Chattanooga"
	},
	{
		"Title": "Introduction to Differential and Difference Equations",
		"Subject": "MATH",
		"Level": "2450",
		"Hours": "3",
		"CRN": "40308",
		"Meeting": [
			{
				"days": "MW",
				"hours": "02:00  PM - 03:15  PM"
			}
		],
		"Campus": "UT Chattanooga"
	},
	{
		"Title": "Introduction to Differential and Difference Equations",
		"Subject": "MATH",
		"Level": "2450",
		"Hours": "3",
		"CRN": "40559",
		"Meeting": [
			{
				"days": "TT",
				"hours": "10:50  AM - 12:05  PM"
			}
		],
		"Campus": "UT Chattanooga"
	},
	{
		"Title": "Introduction to Differential and Difference Equations",
		"Subject": "MATH",
		"Level": "2450",
		"Hours": "3",
		"CRN": "41480",
		"Meeting": [
			{
				"days": "",
				"hours": " - "
			}
		],
		"Campus": "UT Chattanooga"
	},
	{
		"Title": "Introduction to Differential and Difference Equations",
		"Subject": "MATH",
		"Level": "2450",
		"Hours": "3",
		"CRN": "43560",
		"Meeting": [
			{
				"days": "",
				"hours": " - "
			}
		],
		"Campus": "UT Chattanooga"
	},
	{
		"Title": "Calculus with Analytic Geometry III",
		"Subject": "MATH",
		"Level": "2560",
		"Hours": "4",
		"CRN": "40873",
		"Meeting": [
			{
				"days": "",
				"hours": " - "
			}
		],
		"Campus": "UT Chattanooga"
	},
	{
		"Title": "Calculus with Analytic Geometry III",
		"Subject": "MATH",
		"Level": "2560",
		"Hours": "4",
		"CRN": "41616",
		"Meeting": [
			{
				"days": "",
				"hours": " - "
			}
		],
		"Campus": "UT Chattanooga"
	},
	{
		"Title": "Introduction to Logic and Proof",
		"Subject": "MATH",
		"Level": "3000",
		"Hours": "3",
		"CRN": "40310",
		"Meeting": [
			{
				"days": "",
				"hours": " - "
			}
		],
		"Campus": "UT Chattanooga"
	},
	{
		"Title": "Applied Statistics",
		"Subject": "MATH",
		"Level": "3100",
		"Hours": "3",
		"CRN": "42435",
		"Meeting": [
			{
				"days": "MWF",
				"hours": "11:00  AM - 11:50  AM"
			}
		],
		"Campus": "UT Chattanooga"
	},
	{
		"Title": "Introduction to Analysis I",
		"Subject": "MATH",
		"Level": "3510",
		"Hours": "3",
		"CRN": "40534",
		"Meeting": [
			{
				"days": "TT",
				"hours": "10:50  AM - 12:05  PM"
			}
		],
		"Campus": "UT Chattanooga"
	},
	{
		"Title": "Basic Concepts of Geometry",
		"Subject": "MATH",
		"Level": "4010",
		"Hours": "3",
		"CRN": "43404",
		"Meeting": [
			{
				"days": "TT",
				"hours": "09:25  AM - 10:40  AM"
			}
		],
		"Campus": "UT Chattanooga"
	},
	{
		"Title": "Introduction to Probability and Statistics",
		"Subject": "MATH",
		"Level": "4130",
		"Hours": "3",
		"CRN": "41789",
		"Meeting": [
			{
				"days": "",
				"hours": " - "
			}
		],
		"Campus": "UT Chattanooga"
	},
	{
		"Title": "Linear Algebra and Matrix Theory",
		"Subject": "MATH",
		"Level": "4200",
		"Hours": "3",
		"CRN": "40768",
		"Meeting": [
			{
				"days": "MW",
				"hours": "03:25  PM - 04:40  PM"
			}
		],
		"Campus": "UT Chattanooga"
	},
	{
		"Title": "Mathematics of Interest",
		"Subject": "MATH",
		"Level": "4300",
		"Hours": "3",
		"CRN": "42438",
		"Meeting": [
			{
				"days": "MWF",
				"hours": "10:00  AM - 10:50  AM"
			}
		],
		"Campus": "UT Chattanooga"
	},
	{
		"Title": "Introduction to Numerical Analysis",
		"Subject": "MATH",
		"Level": "4600",
		"Hours": "3",
		"CRN": "43406",
		"Meeting": [
			{
				"days": "TT",
				"hours": "01:40  PM - 02:55  PM"
			}
		],
		"Campus": "UT Chattanooga"
	},
	{
		"Title": "Numerical Analysis I",
		"Subject": "MATH",
		"Level": "4600",
		"Hours": "3",
		"CRN": "44036",
		"Meeting": [
			{
				"days": "",
				"hours": " - "
			}
		],
		"Campus": "UT Chattanooga"
	},
	{
		"Title": "Applied Knot Theory",
		"Subject": "MATH",
		"Level": "4999R",
		"Hours": "3",
		"CRN": "43568",
		"Meeting": [
			{
				"days": "MWF",
				"hours": "09:00  AM - 09:50  AM"
			}
		],
		"Campus": "UT Chattanooga"
	},
	{
		"Title": "Abstract Algebra I",
		"Subject": "MATH",
		"Level": "4999R",
		"Hours": "3",
		"CRN": "43748",
		"Meeting": [
			{
				"days": "MWF",
				"hours": "12:00  PM - 12:50  PM"
			}
		],
		"Campus": "UT Chattanooga"
	},
	{
		"Title": "Statistical Computation and Programming",
		"Subject": "MATH",
		"Level": "4999R",
		"Hours": "3",
		"CRN": "44010",
		"Meeting": [
			{
				"days": "",
				"hours": " - "
			}
		],
		"Campus": "UT Chattanooga"
	},
	{
		"Title": "Introduction to Probability and Statistics",
		"Subject": "MATH",
		"Level": "5130",
		"Hours": "3",
		"CRN": "41792",
		"Meeting": [
			{
				"days": "",
				"hours": " - "
			}
		],
		"Campus": "UT Chattanooga"
	},
	{
		"Title": "Statistical Computation And Programming",
		"Subject": "MATH",
		"Level": "5131",
		"Hours": "3",
		"CRN": "41313",
		"Meeting": [
			{
				"days": "",
				"hours": " - "
			}
		],
		"Campus": "UT Chattanooga"
	},
	{
		"Title": "Linear Algebra and Matrix Theory",
		"Subject": "MATH",
		"Level": "5210",
		"Hours": "3",
		"CRN": "40783",
		"Meeting": [
			{
				"days": "MW",
				"hours": "03:25  PM - 04:40  PM"
			}
		],
		"Campus": "UT Chattanooga"
	},
	{
		"Title": "Modern Algebra I",
		"Subject": "MATH",
		"Level": "5250",
		"Hours": "3",
		"CRN": "43407",
		"Meeting": [
			{
				"days": "MWF",
				"hours": "12:00  PM - 12:50  PM"
			}
		],
		"Campus": "UT Chattanooga"
	},
	{
		"Title": "Ordinary Differential Equations",
		"Subject": "MATH",
		"Level": "5450",
		"Hours": "3",
		"CRN": "43390",
		"Meeting": [
			{
				"days": "MW",
				"hours": "05:00  PM - 06:15  PM"
			}
		],
		"Campus": "UT Chattanooga"
	},
	{
		"Title": "Real Analysis",
		"Subject": "MATH",
		"Level": "5560",
		"Hours": "3",
		"CRN": "41622",
		"Meeting": [
			{
				"days": "MW",
				"hours": "06:30  PM - 07:45  PM"
			}
		],
		"Campus": "UT Chattanooga"
	},
	{
		"Title": "Numerical Analysis I",
		"Subject": "MATH",
		"Level": "5600",
		"Hours": "3",
		"CRN": "40874",
		"Meeting": [
			{
				"days": "TT",
				"hours": "01:40  PM - 02:55  PM"
			}
		],
		"Campus": "UT Chattanooga"
	},
	{
		"Title": "Numerical Analysis I",
		"Subject": "MATH",
		"Level": "5600",
		"Hours": "3",
		"CRN": "43717",
		"Meeting": [
			{
				"days": "",
				"hours": " - "
			}
		],
		"Campus": "UTC Online"
	},
	{
		"Title": "Applied Knot Theory",
		"Subject": "MATH",
		"Level": "5910R",
		"Hours": "3",
		"CRN": "43959",
		"Meeting": [
			{
				"days": "MWF",
				"hours": "09:00  AM - 09:50  AM"
			}
		],
		"Campus": "UT Chattanooga"
	},
	{
		"Title": "Graduate Internship in Mathematics",
		"Subject": "MATH",
		"Level": "5920",
		"Hours": "3",
		"CRN": "44039",
		"Meeting": [
			{
				"days": "",
				"hours": " - "
			}
		],
		"Campus": "UT Chattanooga"
	},
	{
		"Title": "Thesis",
		"Subject": "MATH",
		"Level": "5999R",
		"Hours": "3",
		"CRN": "43892",
		"Meeting": [
			{
				"days": "",
				"hours": " - "
			}
		],
		"Campus": "UT Chattanooga"
	},
	{
		"Title": "Thesis",
		"Subject": "MATH",
		"Level": "5999R",
		"Hours": "3",
		"CRN": "43997",
		"Meeting": [
			{
				"days": "",
				"hours": " - "
			}
		],
		"Campus": "UT Chattanooga"
	},
	{
		"Title": "Doctoral Research",
		"Subject": "MATH",
		"Level": "7950R",
		"Hours": "1 TO 9",
		"CRN": "42027",
		"Meeting": [
			{
				"days": "",
				"hours": " - "
			}
		],
		"Campus": "UT Chattanooga"
	},
	{
		"Title": "Doctoral Research",
		"Subject": "MATH",
		"Level": "7950R",
		"Hours": "3",
		"CRN": "42053",
		"Meeting": [
			{
				"days": "",
				"hours": " - "
			}
		],
		"Campus": "UT Chattanooga"
	},
	{
		"Title": "Doctoral Dissertation",
		"Subject": "MATH",
		"Level": "7999R",
		"Hours": "1 TO 12",
		"CRN": "41507",
		"Meeting": [
			{
				"days": "",
				"hours": " - "
			}
		],
		"Campus": "UT Chattanooga"
	},
	{
		"Title": "Doctoral Dissertation",
		"Subject": "MATH",
		"Level": "7999R",
		"Hours": "1 TO 12",
		"CRN": "42763",
		"Meeting": [
			{
				"days": "",
				"hours": " - "
			}
		],
		"Campus": "UT Chattanooga"
	},
	{
		"Title": "Doctoral Dissertation",
		"Subject": "MATH",
		"Level": "7999R",
		"Hours": "6",
		"CRN": "43960",
		"Meeting": [
			{
				"days": "",
				"hours": " - "
			}
		],
		"Campus": "UT Chattanooga"
	}
]