[
	{
		"Title": "General Chemistry I",
		"Subject": "CHEM",
		"Level": "1110",
		"Hours": "3",
		"CRN": "41924",
		"Meeting": [
			{
				"days": "MWF",
				"hours": "02:00  PM - 02:50  PM"
			}
		],
		"Campus": "UT Chattanooga"
	},
	{
		"Title": "General Chemistry I",
		"Subject": "CHEM",
		"Level": "1110",
		"Hours": "3",
		"CRN": "41090",
		"Meeting": [
			{
				"days": "",
				"hours": " - "
			}
		],
		"Campus": "UT Chattanooga"
	},
	{
		"Title": "General Chemistry I",
		"Subject": "CHEM",
		"Level": "1110",
		"Hours": "3",
		"CRN": "40085",
		"Meeting": [
			{
				"days": "MWF",
				"hours": "08:00  AM - 08:50  AM"
			}
		],
		"Campus": "UT Chattanooga"
	},
	{
		"Title": "General Chemistry I",
		"Subject": "CHEM",
		"Level": "1110",
		"Hours": "3",
		"CRN": "40086",
		"Meeting": [
			{
				"days": "MW",
				"hours": "02:00  PM - 03:15  PM"
			}
		],
		"Campus": "UT Chattanooga"
	},
	{
		"Title": "General Chemistry I",
		"Subject": "CHEM",
		"Level": "1110",
		"Hours": "3",
		"CRN": "40087",
		"Meeting": [
			{
				"days": "TT",
				"hours": "10:50  AM - 12:05  PM"
			}
		],
		"Campus": "UT Chattanooga"
	},
	{
		"Title": "General Chemistry I",
		"Subject": "CHEM",
		"Level": "1110",
		"Hours": "3",
		"CRN": "40088",
		"Meeting": [
			{
				"days": "TT",
				"hours": "03:05  PM - 04:20  PM"
			}
		],
		"Campus": "UT Chattanooga"
	},
	{
		"Title": "General Chemistry I",
		"Subject": "CHEM",
		"Level": "1110",
		"Hours": "3",
		"CRN": "42958",
		"Meeting": [
			{
				"days": "TT",
				"hours": "12:15  PM - 01:30  PM"
			}
		],
		"Campus": "UT Chattanooga"
	},
	{
		"Title": "General Chemistry I",
		"Subject": "CHEM",
		"Level": "1110",
		"Hours": "3",
		"CRN": "40621",
		"Meeting": [
			{
				"days": "TT",
				"hours": "08:00  AM - 09:15  AM"
			}
		],
		"Campus": "UT Chattanooga"
	},
	{
		"Title": "General Chemistry I",
		"Subject": "CHEM",
		"Level": "1110",
		"Hours": "3",
		"CRN": "40801",
		"Meeting": [
			{
				"days": "TT",
				"hours": "09:25  AM - 10:40  AM"
			}
		],
		"Campus": "UT Chattanooga"
	},
	{
		"Title": "General Chemistry I",
		"Subject": "CHEM",
		"Level": "1110",
		"Hours": "3",
		"CRN": "42959",
		"Meeting": [
			{
				"days": "MW",
				"hours": "03:25  PM - 04:40  PM"
			}
		],
		"Campus": "UT Chattanooga"
	},
	{
		"Title": "General Chemistry I",
		"Subject": "CHEM",
		"Level": "1110",
		"Hours": "3",
		"CRN": "43255",
		"Meeting": [
			{
				"days": "TT",
				"hours": "01:40  PM - 02:55  PM"
			}
		],
		"Campus": "UT Chattanooga"
	},
	{
		"Title": "General Chemistry I",
		"Subject": "CHEM",
		"Level": "1110",
		"Hours": "3",
		"CRN": "43933",
		"Meeting": [
			{
				"days": "MW",
				"hours": "05:00  PM - 06:15  PM"
			}
		],
		"Campus": "UT Chattanooga"
	},
	{
		"Title": "General Chemistry I Laboratory",
		"Subject": "CHEM",
		"Level": "1110L",
		"Hours": "1",
		"CRN": "40089",
		"Meeting": [
			{
				"days": "T",
				"hours": "09:00  AM - 10:50  AM"
			}
		],
		"Campus": "UT Chattanooga"
	},
	{
		"Title": "General Chemistry I Laboratory",
		"Subject": "CHEM",
		"Level": "1110L",
		"Hours": "1",
		"CRN": "40090",
		"Meeting": [
			{
				"days": "T",
				"hours": "11:00  AM - 12:50  PM"
			}
		],
		"Campus": "UT Chattanooga"
	},
	{
		"Title": "General Chemistry I Laboratory",
		"Subject": "CHEM",
		"Level": "1110L",
		"Hours": "1",
		"CRN": "40091",
		"Meeting": [
			{
				"days": "T",
				"hours": "02:00  PM - 03:50  PM"
			}
		],
		"Campus": "UT Chattanooga"
	},
	{
		"Title": "General Chemistry I Laboratory",
		"Subject": "CHEM",
		"Level": "1110L",
		"Hours": "1",
		"CRN": "40092",
		"Meeting": [
			{
				"days": "T",
				"hours": "04:00  PM - 05:50  PM"
			}
		],
		"Campus": "UT Chattanooga"
	},
	{
		"Title": "General Chemistry I Laboratory",
		"Subject": "CHEM",
		"Level": "1110L",
		"Hours": "1",
		"CRN": "40706",
		"Meeting": [
			{
				"days": "T",
				"hours": "06:00  PM - 07:50  PM"
			}
		],
		"Campus": "UT Chattanooga"
	},
	{
		"Title": "General Chemistry I Laboratory",
		"Subject": "CHEM",
		"Level": "1110L",
		"Hours": "1",
		"CRN": "40093",
		"Meeting": [
			{
				"days": "W",
				"hours": "09:00  AM - 10:50  AM"
			}
		],
		"Campus": "UT Chattanooga"
	},
	{
		"Title": "General Chemistry I Laboratory",
		"Subject": "CHEM",
		"Level": "1110L",
		"Hours": "1",
		"CRN": "40094",
		"Meeting": [
			{
				"days": "W",
				"hours": "11:00  AM - 12:50  PM"
			}
		],
		"Campus": "UT Chattanooga"
	},
	{
		"Title": "General Chemistry I Laboratory",
		"Subject": "CHEM",
		"Level": "1110L",
		"Hours": "1",
		"CRN": "40095",
		"Meeting": [
			{
				"days": "W",
				"hours": "02:00  PM - 03:50  PM"
			}
		],
		"Campus": "UT Chattanooga"
	},
	{
		"Title": "General Chemistry I Laboratory",
		"Subject": "CHEM",
		"Level": "1110L",
		"Hours": "1",
		"CRN": "40476",
		"Meeting": [
			{
				"days": "W",
				"hours": "04:00  PM - 05:50  PM"
			}
		],
		"Campus": "UT Chattanooga"
	},
	{
		"Title": "General Chemistry I Laboratory",
		"Subject": "CHEM",
		"Level": "1110L",
		"Hours": "1",
		"CRN": "40707",
		"Meeting": [
			{
				"days": "W",
				"hours": "06:00  PM - 07:50  PM"
			}
		],
		"Campus": "UT Chattanooga"
	},
	{
		"Title": "General Chemistry I Laboratory",
		"Subject": "CHEM",
		"Level": "1110L",
		"Hours": "1",
		"CRN": "40096",
		"Meeting": [
			{
				"days": "T",
				"hours": "11:00  AM - 12:50  PM"
			}
		],
		"Campus": "UT Chattanooga"
	},
	{
		"Title": "General Chemistry I Laboratory",
		"Subject": "CHEM",
		"Level": "1110L",
		"Hours": "1",
		"CRN": "40097",
		"Meeting": [
			{
				"days": "T",
				"hours": "02:00  PM - 03:50  PM"
			}
		],
		"Campus": "UT Chattanooga"
	},
	{
		"Title": "General Chemistry I Laboratory",
		"Subject": "CHEM",
		"Level": "1110L",
		"Hours": "1",
		"CRN": "40098",
		"Meeting": [
			{
				"days": "T",
				"hours": "04:00  PM - 05:50  PM"
			}
		],
		"Campus": "UT Chattanooga"
	},
	{
		"Title": "General Chemistry I Laboratory",
		"Subject": "CHEM",
		"Level": "1110L",
		"Hours": "1",
		"CRN": "40618",
		"Meeting": [
			{
				"days": "F",
				"hours": "11:00  AM - 12:50  PM"
			}
		],
		"Campus": "UT Chattanooga"
	},
	{
		"Title": "General Chemistry I Laboratory",
		"Subject": "CHEM",
		"Level": "1110L",
		"Hours": "1",
		"CRN": "40619",
		"Meeting": [
			{
				"days": "F",
				"hours": "01:00  PM - 02:50  PM"
			}
		],
		"Campus": "UT Chattanooga"
	},
	{
		"Title": "General Chemistry I Laboratory",
		"Subject": "CHEM",
		"Level": "1110L",
		"Hours": "1",
		"CRN": "41091",
		"Meeting": [
			{
				"days": "T",
				"hours": "06:00  PM - 07:50  PM"
			}
		],
		"Campus": "UT Chattanooga"
	},
	{
		"Title": "General Chemistry I Laboratory",
		"Subject": "CHEM",
		"Level": "1110L",
		"Hours": "1",
		"CRN": "41092",
		"Meeting": [
			{
				"days": "F",
				"hours": "09:00  AM - 10:50  AM"
			}
		],
		"Campus": "UT Chattanooga"
	},
	{
		"Title": "General Chemistry I Laboratory",
		"Subject": "CHEM",
		"Level": "1110L",
		"Hours": "1",
		"CRN": "41517",
		"Meeting": [
			{
				"days": "T",
				"hours": "09:00  AM - 10:50  AM"
			}
		],
		"Campus": "UT Chattanooga"
	},
	{
		"Title": "General Chemistry II",
		"Subject": "CHEM",
		"Level": "1120",
		"Hours": "3",
		"CRN": "40575",
		"Meeting": [
			{
				"days": "MWF",
				"hours": "09:00  AM - 09:50  AM"
			}
		],
		"Campus": "UT Chattanooga"
	},
	{
		"Title": "General Chemistry II",
		"Subject": "CHEM",
		"Level": "1120",
		"Hours": "3",
		"CRN": "40840",
		"Meeting": [
			{
				"days": "TT",
				"hours": "01:40  PM - 02:55  PM"
			}
		],
		"Campus": "UT Chattanooga"
	},
	{
		"Title": "General Chemistry II Laboratory",
		"Subject": "CHEM",
		"Level": "1120L",
		"Hours": "1",
		"CRN": "40099",
		"Meeting": [
			{
				"days": "M",
				"hours": "09:00  AM - 10:50  AM"
			}
		],
		"Campus": "UT Chattanooga"
	},
	{
		"Title": "General Chemistry II Laboratory",
		"Subject": "CHEM",
		"Level": "1120L",
		"Hours": "1",
		"CRN": "40100",
		"Meeting": [
			{
				"days": "M",
				"hours": "11:00  AM - 12:50  PM"
			}
		],
		"Campus": "UT Chattanooga"
	},
	{
		"Title": "General Chemistry II Laboratory",
		"Subject": "CHEM",
		"Level": "1120L",
		"Hours": "1",
		"CRN": "40841",
		"Meeting": [
			{
				"days": "M",
				"hours": "01:00  PM - 02:50  PM"
			}
		],
		"Campus": "UT Chattanooga"
	},
	{
		"Title": "General Chemistry II Laboratory",
		"Subject": "CHEM",
		"Level": "1120L",
		"Hours": "1",
		"CRN": "41956",
		"Meeting": [
			{
				"days": "M",
				"hours": "03:00  PM - 04:50  PM"
			}
		],
		"Campus": "UT Chattanooga"
	},
	{
		"Title": "The First Year Experience",
		"Subject": "CHEM",
		"Level": "1999R",
		"Hours": "1",
		"CRN": "43835",
		"Meeting": [
			{
				"days": "T",
				"hours": "03:05  PM - 04:20  PM"
			}
		],
		"Campus": "UT Chattanooga"
	},
	{
		"Title": "Scientific Communication",
		"Subject": "CHEM",
		"Level": "2810",
		"Hours": "2",
		"CRN": "40126",
		"Meeting": [
			{
				"days": "",
				"hours": " - "
			}
		],
		"Campus": "UT Chattanooga"
	},
	{
		"Title": "Organic Chemistry I",
		"Subject": "CHEM",
		"Level": "3010",
		"Hours": "3",
		"CRN": "40131",
		"Meeting": [
			{
				"days": "MWF",
				"hours": "08:00  AM - 08:50  AM"
			}
		],
		"Campus": "UT Chattanooga"
	},
	{
		"Title": "Organic Chemistry I",
		"Subject": "CHEM",
		"Level": "3010",
		"Hours": "3",
		"CRN": "40133",
		"Meeting": [
			{
				"days": "MWF",
				"hours": "12:00  PM - 12:50  PM"
			}
		],
		"Campus": "UT Chattanooga"
	},
	{
		"Title": "Organic Chemistry I",
		"Subject": "CHEM",
		"Level": "3010",
		"Hours": "3",
		"CRN": "40132",
		"Meeting": [
			{
				"days": "MWF",
				"hours": "01:00  PM - 01:50  PM"
			}
		],
		"Campus": "UT Chattanooga"
	},
	{
		"Title": "Organic Chemistry I Laboratory",
		"Subject": "CHEM",
		"Level": "3010L",
		"Hours": "1",
		"CRN": "40135",
		"Meeting": [
			{
				"days": "T",
				"hours": "08:00  AM - 09:15  AM"
			},
			{
				"days": "T",
				"hours": "09:15  AM - 10:50  AM"
			}
		],
		"Campus": "UT Chattanooga"
	},
	{
		"Title": "Organic Chemistry I Laboratory",
		"Subject": "CHEM",
		"Level": "3010L",
		"Hours": "1",
		"CRN": "43257",
		"Meeting": [
			{
				"days": "T",
				"hours": "11:00  AM - 11:50  AM"
			},
			{
				"days": "T",
				"hours": "12:00  PM - 01:50  PM"
			}
		],
		"Campus": "UT Chattanooga"
	},
	{
		"Title": "Organic Chemistry I Laboratory",
		"Subject": "CHEM",
		"Level": "3010L",
		"Hours": "1",
		"CRN": "40577",
		"Meeting": [
			{
				"days": "T",
				"hours": "01:40  PM - 02:55  PM"
			},
			{
				"days": "T",
				"hours": "02:55  PM - 04:30  PM"
			}
		],
		"Campus": "UT Chattanooga"
	},
	{
		"Title": "Organic Chemistry I Laboratory",
		"Subject": "CHEM",
		"Level": "3010L",
		"Hours": "1",
		"CRN": "43258",
		"Meeting": [
			{
				"days": "T",
				"hours": "05:00  PM - 05:50  PM"
			},
			{
				"days": "T",
				"hours": "06:00  PM - 07:50  PM"
			}
		],
		"Campus": "UT Chattanooga"
	},
	{
		"Title": "Organic Chemistry I Laboratory",
		"Subject": "CHEM",
		"Level": "3010L",
		"Hours": "1",
		"CRN": "40136",
		"Meeting": [
			{
				"days": "W",
				"hours": "02:00  PM - 02:50  PM"
			},
			{
				"days": "W",
				"hours": "02:50  PM - 04:50  PM"
			}
		],
		"Campus": "UT Chattanooga"
	},
	{
		"Title": "Organic Chemistry I Laboratory",
		"Subject": "CHEM",
		"Level": "3010L",
		"Hours": "1",
		"CRN": "41093",
		"Meeting": [
			{
				"days": "W",
				"hours": "11:00  AM - 11:50  AM"
			},
			{
				"days": "W",
				"hours": "11:50  AM - 01:50  PM"
			}
		],
		"Campus": "UT Chattanooga"
	},
	{
		"Title": "Organic Chemistry I Laboratory",
		"Subject": "CHEM",
		"Level": "3010L",
		"Hours": "1",
		"CRN": "43259",
		"Meeting": [
			{
				"days": "T",
				"hours": "09:00  AM - 09:50  AM"
			},
			{
				"days": "T",
				"hours": "10:00  AM - 11:50  AM"
			}
		],
		"Campus": "UT Chattanooga"
	},
	{
		"Title": "Organic Chemistry II",
		"Subject": "CHEM",
		"Level": "3020",
		"Hours": "3",
		"CRN": "43261",
		"Meeting": [
			{
				"days": "TT",
				"hours": "12:15  PM - 01:30  PM"
			}
		],
		"Campus": "UT Chattanooga"
	},
	{
		"Title": "Organic Chemistry II Laboratory",
		"Subject": "CHEM",
		"Level": "3020L",
		"Hours": "1",
		"CRN": "41028",
		"Meeting": [
			{
				"days": "M",
				"hours": "10:00  AM - 10:50  AM"
			},
			{
				"days": "M",
				"hours": "11:00  AM - 12:50  PM"
			}
		],
		"Campus": "UT Chattanooga"
	},
	{
		"Title": "Quantitative Analysis",
		"Subject": "CHEM",
		"Level": "3210",
		"Hours": "4",
		"CRN": "40128",
		"Meeting": [
			{
				"days": "TT",
				"hours": "08:00  AM - 09:15  AM"
			}
		],
		"Campus": "UT Chattanooga"
	},
	{
		"Title": "Quantitative Analysis Laboratory",
		"Subject": "CHEM",
		"Level": "3210L",
		"Hours": "0",
		"CRN": "40129",
		"Meeting": [
			{
				"days": "M",
				"hours": "02:00  PM - 04:50  PM"
			}
		],
		"Campus": "UT Chattanooga"
	},
	{
		"Title": "Quantitative Analysis Laboratory",
		"Subject": "CHEM",
		"Level": "3210L",
		"Hours": "0",
		"CRN": "40535",
		"Meeting": [
			{
				"days": "T",
				"hours": "01:40  PM - 04:30  PM"
			}
		],
		"Campus": "UT Chattanooga"
	},
	{
		"Title": "Quantitative Analysis Laboratory",
		"Subject": "CHEM",
		"Level": "3210L",
		"Hours": "0",
		"CRN": "40130",
		"Meeting": [
			{
				"days": "T",
				"hours": "01:40  PM - 04:30  PM"
			}
		],
		"Campus": "UT Chattanooga"
	},
	{
		"Title": "Inorganic Chemistry",
		"Subject": "CHEM",
		"Level": "3310",
		"Hours": "3",
		"CRN": "40127",
		"Meeting": [
			{
				"days": "MWF",
				"hours": "09:00  AM - 09:50  AM"
			}
		],
		"Campus": "UT Chattanooga"
	},
	{
		"Title": "Physical Chemistry I",
		"Subject": "CHEM",
		"Level": "3710",
		"Hours": "3",
		"CRN": "40137",
		"Meeting": [
			{
				"days": "MWF",
				"hours": "01:00  PM - 01:50  PM"
			}
		],
		"Campus": "UT Chattanooga"
	},
	{
		"Title": "Physical Chemistry I Laboratory",
		"Subject": "CHEM",
		"Level": "3710L",
		"Hours": "1",
		"CRN": "40138",
		"Meeting": [
			{
				"days": "T",
				"hours": "01:40  PM - 04:30  PM"
			}
		],
		"Campus": "UT Chattanooga"
	},
	{
		"Title": "Physical Chemistry I Laboratory",
		"Subject": "CHEM",
		"Level": "3710L",
		"Hours": "1",
		"CRN": "40600",
		"Meeting": [
			{
				"days": "T",
				"hours": "01:40  PM - 04:30  PM"
			}
		],
		"Campus": "UT Chattanooga"
	},
	{
		"Title": "Chemical Literature",
		"Subject": "CHEM",
		"Level": "3820",
		"Hours": "1",
		"CRN": "40139",
		"Meeting": [
			{
				"days": "",
				"hours": " - "
			}
		],
		"Campus": "UT Chattanooga"
	},
	{
		"Title": "Advanced Organic Chemistry",
		"Subject": "CHEM",
		"Level": "4030",
		"Hours": "4",
		"CRN": "43263",
		"Meeting": [
			{
				"days": "MWF",
				"hours": "10:00  AM - 10:50  AM"
			}
		],
		"Campus": "UT Chattanooga"
	},
	{
		"Title": "Advanced Organic Chemistry Laboratory",
		"Subject": "CHEM",
		"Level": "4030L",
		"Hours": "0",
		"CRN": "43264",
		"Meeting": [
			{
				"days": "T",
				"hours": "01:40  PM - 02:55  PM"
			},
			{
				"days": "T",
				"hours": "03:00  PM - 04:30  PM"
			}
		],
		"Campus": "UT Chattanooga"
	},
	{
		"Title": "Instrumental Analysis",
		"Subject": "CHEM",
		"Level": "4230",
		"Hours": "4",
		"CRN": "40140",
		"Meeting": [
			{
				"days": "TT",
				"hours": "12:15  PM - 01:30  PM"
			}
		],
		"Campus": "UT Chattanooga"
	},
	{
		"Title": "Instrumental Analysis Laboratory",
		"Subject": "CHEM",
		"Level": "4230L",
		"Hours": "0",
		"CRN": "40141",
		"Meeting": [
			{
				"days": "M",
				"hours": "05:30  PM - 08:20  PM"
			}
		],
		"Campus": "UT Chattanooga"
	},
	{
		"Title": "Instrumental Analysis Laboratory",
		"Subject": "CHEM",
		"Level": "4230L",
		"Hours": "0",
		"CRN": "40142",
		"Meeting": [
			{
				"days": "W",
				"hours": "05:30  PM - 08:20  PM"
			}
		],
		"Campus": "UT Chattanooga"
	},
	{
		"Title": "Biochemistry",
		"Subject": "CHEM",
		"Level": "4510",
		"Hours": "3",
		"CRN": "40145",
		"Meeting": [
			{
				"days": "",
				"hours": " - "
			}
		],
		"Campus": "UT Chattanooga"
	},
	{
		"Title": "Biochemistry",
		"Subject": "CHEM",
		"Level": "4510",
		"Hours": "3",
		"CRN": "43265",
		"Meeting": [
			{
				"days": "MWF",
				"hours": "02:00  PM - 02:50  PM"
			}
		],
		"Campus": "UT Chattanooga"
	},
	{
		"Title": "Seminar",
		"Subject": "CHEM",
		"Level": "4830R",
		"Hours": "1",
		"CRN": "42108",
		"Meeting": [
			{
				"days": "F",
				"hours": "02:00  PM - 04:00  PM"
			}
		],
		"Campus": "UT Chattanooga"
	},
	{
		"Title": "Departmental Thesis",
		"Subject": "CHEM",
		"Level": "4995R",
		"Hours": "1 TO 3",
		"CRN": "43757",
		"Meeting": [
			{
				"days": "",
				"hours": " - "
			}
		],
		"Campus": "UT Chattanooga"
	},
	{
		"Title": "Departmental Thesis",
		"Subject": "CHEM",
		"Level": "4995R",
		"Hours": "1 TO 3",
		"CRN": "43758",
		"Meeting": [
			{
				"days": "",
				"hours": " - "
			}
		],
		"Campus": "UT Chattanooga"
	},
	{
		"Title": "Departmental Thesis",
		"Subject": "CHEM",
		"Level": "4995R",
		"Hours": "1 TO 3",
		"CRN": "43759",
		"Meeting": [
			{
				"days": "",
				"hours": " - "
			}
		],
		"Campus": "UT Chattanooga"
	},
	{
		"Title": "Departmental Thesis",
		"Subject": "CHEM",
		"Level": "4995R",
		"Hours": "1 TO 3",
		"CRN": "43760",
		"Meeting": [
			{
				"days": "",
				"hours": " - "
			}
		],
		"Campus": "UT Chattanooga"
	},
	{
		"Title": "Research",
		"Subject": "CHEM",
		"Level": "4997R",
		"Hours": "1 TO 9",
		"CRN": "42112",
		"Meeting": [
			{
				"days": "",
				"hours": " - "
			}
		],
		"Campus": "UT Chattanooga"
	},
	{
		"Title": "Research",
		"Subject": "CHEM",
		"Level": "4997R",
		"Hours": "1 TO 9",
		"CRN": "43824",
		"Meeting": [
			{
				"days": "",
				"hours": " - "
			}
		],
		"Campus": "UT Chattanooga"
	},
	{
		"Title": "Research",
		"Subject": "CHEM",
		"Level": "4997R",
		"Hours": "1 TO 9",
		"CRN": "42114",
		"Meeting": [
			{
				"days": "",
				"hours": " - "
			}
		],
		"Campus": "UT Chattanooga"
	},
	{
		"Title": "Research",
		"Subject": "CHEM",
		"Level": "4997R",
		"Hours": "1 TO 9",
		"CRN": "42115",
		"Meeting": [
			{
				"days": "",
				"hours": " - "
			}
		],
		"Campus": "UT Chattanooga"
	},
	{
		"Title": "Research",
		"Subject": "CHEM",
		"Level": "4997R",
		"Hours": "1 TO 9",
		"CRN": "42116",
		"Meeting": [
			{
				"days": "",
				"hours": " - "
			}
		],
		"Campus": "UT Chattanooga"
	},
	{
		"Title": "Research",
		"Subject": "CHEM",
		"Level": "4997R",
		"Hours": "1 TO 9",
		"CRN": "42117",
		"Meeting": [
			{
				"days": "",
				"hours": " - "
			}
		],
		"Campus": "UT Chattanooga"
	},
	{
		"Title": "Research",
		"Subject": "CHEM",
		"Level": "4997R",
		"Hours": "1 TO 9",
		"CRN": "42118",
		"Meeting": [
			{
				"days": "",
				"hours": " - "
			}
		],
		"Campus": "UT Chattanooga"
	},
	{
		"Title": "Research",
		"Subject": "CHEM",
		"Level": "4997R",
		"Hours": "1 TO 9",
		"CRN": "42119",
		"Meeting": [
			{
				"days": "",
				"hours": " - "
			}
		],
		"Campus": "UT Chattanooga"
	},
	{
		"Title": "Research",
		"Subject": "CHEM",
		"Level": "4997R",
		"Hours": "1 TO 9",
		"CRN": "42120",
		"Meeting": [
			{
				"days": "",
				"hours": " - "
			}
		],
		"Campus": "UT Chattanooga"
	},
	{
		"Title": "Research",
		"Subject": "CHEM",
		"Level": "4997R",
		"Hours": "1 TO 9",
		"CRN": "42121",
		"Meeting": [
			{
				"days": "",
				"hours": " - "
			}
		],
		"Campus": "UT Chattanooga"
	},
	{
		"Title": "Individual Studies",
		"Subject": "CHEM",
		"Level": "4998R",
		"Hours": "1 TO 9",
		"CRN": "43623",
		"Meeting": [
			{
				"days": "",
				"hours": " - "
			}
		],
		"Campus": "UT Chattanooga"
	}
]