[
	{
		"Title": "Introduction to Patient/Client Management",
		"Subject": "PHYT",
		"Level": "7111",
		"Hours": "2",
		"CRN": "40001",
		"Meeting": [
			{
				"days": "TT",
				"hours": "08:00  AM - 09:20  AM"
			},
			{
				"days": "TT",
				"hours": "08:00  AM - 09:20  AM"
			},
			{
				"days": "TT",
				"hours": "08:00  AM - 09:20  AM"
			}
		],
		"Campus": "UT Chattanooga"
	},
	{
		"Title": "Introduction to Patient/Client Management",
		"Subject": "PHYT",
		"Level": "7111",
		"Hours": "2",
		"CRN": "43897",
		"Meeting": [
			{
				"days": "TT",
				"hours": "08:00  AM - 09:20  AM"
			},
			{
				"days": "TT",
				"hours": "08:00  AM - 09:20  AM"
			},
			{
				"days": "TT",
				"hours": "08:00  AM - 09:20  AM"
			}
		],
		"Campus": "UT Chattanooga"
	},
	{
		"Title": "Professional Communication and Education",
		"Subject": "PHYT",
		"Level": "7113",
		"Hours": "2",
		"CRN": "40002",
		"Meeting": [
			{
				"days": "T",
				"hours": "10:00  AM - 11:50  AM"
			},
			{
				"days": "T",
				"hours": "10:00  AM - 11:50  AM"
			}
		],
		"Campus": "UT Chattanooga"
	},
	{
		"Title": "Evidence in Practice",
		"Subject": "PHYT",
		"Level": "7114",
		"Hours": "2",
		"CRN": "40003",
		"Meeting": [
			{
				"days": "T",
				"hours": "10:00  AM - 11:50  AM"
			}
		],
		"Campus": "UT Chattanooga"
	},
	{
		"Title": "Musculoskeletal Examination",
		"Subject": "PHYT",
		"Level": "7115",
		"Hours": "2",
		"CRN": "40004",
		"Meeting": [
			{
				"days": "TT",
				"hours": "01:00  PM - 02:20  PM"
			},
			{
				"days": "TT",
				"hours": "01:00  PM - 02:20  PM"
			},
			{
				"days": "TT",
				"hours": "01:00  PM - 02:20  PM"
			}
		],
		"Campus": "UT Chattanooga"
	},
	{
		"Title": "Musculoskeletal Examination",
		"Subject": "PHYT",
		"Level": "7115",
		"Hours": "2",
		"CRN": "43898",
		"Meeting": [
			{
				"days": "TT",
				"hours": "01:00  PM - 02:20  PM"
			},
			{
				"days": "TT",
				"hours": "01:00  PM - 02:20  PM"
			},
			{
				"days": "TT",
				"hours": "01:00  PM - 02:20  PM"
			}
		],
		"Campus": "UT Chattanooga"
	},
	{
		"Title": "Human Gross Anatomy",
		"Subject": "PHYT",
		"Level": "7116",
		"Hours": "6",
		"CRN": "40005",
		"Meeting": [
			{
				"days": "MWF",
				"hours": "08:00  AM - 09:50  AM"
			},
			{
				"days": "MF",
				"hours": "08:00  AM - 09:50  AM"
			},
			{
				"days": "MF",
				"hours": "10:00  AM - 11:50  AM"
			},
			{
				"days": "MF",
				"hours": "10:00  AM - 11:50  AM"
			},
			{
				"days": "MF",
				"hours": "10:00  AM - 11:50  AM"
			}
		],
		"Campus": "UT Chattanooga"
	},
	{
		"Title": "Kinesiology and Applications of Exercise",
		"Subject": "PHYT",
		"Level": "7210",
		"Hours": "3",
		"CRN": "40533",
		"Meeting": [
			{
				"days": "M",
				"hours": "01:00  PM - 02:50  PM"
			},
			{
				"days": "W",
				"hours": "02:00  PM - 03:50  PM"
			}
		],
		"Campus": "UT Chattanooga"
	},
	{
		"Title": "Physical Therapy Management of Cardiopulmonary Dysfunction",
		"Subject": "PHYT",
		"Level": "7211",
		"Hours": "4",
		"CRN": "40006",
		"Meeting": [
			{
				"days": "MW",
				"hours": "01:00  PM - 03:20  PM"
			},
			{
				"days": "MW",
				"hours": "01:00  PM - 03:20  PM"
			}
		],
		"Campus": "UT Chattanooga"
	},
	{
		"Title": "Physical Therapy Management of Cardiopulmonary Dysfunction",
		"Subject": "PHYT",
		"Level": "7211",
		"Hours": "4",
		"CRN": "43910",
		"Meeting": [
			{
				"days": "MW",
				"hours": "01:00  PM - 03:20  PM"
			},
			{
				"days": "MW",
				"hours": "01:00  PM - 03:20  PM"
			}
		],
		"Campus": "UT Chattanooga"
	},
	{
		"Title": "Critical Inquiry",
		"Subject": "PHYT",
		"Level": "7212",
		"Hours": "3",
		"CRN": "40008",
		"Meeting": [
			{
				"days": "TT",
				"hours": "01:00  PM - 02:20  PM"
			}
		],
		"Campus": "UT Chattanooga"
	},
	{
		"Title": "Physical Therapy Management of Medical/Surgical Conditions I",
		"Subject": "PHYT",
		"Level": "7213",
		"Hours": "2",
		"CRN": "40009",
		"Meeting": [
			{
				"days": "TT",
				"hours": "08:30  AM - 10:20  AM"
			}
		],
		"Campus": "UT Chattanooga"
	},
	{
		"Title": "Physical Management of Patients with Neurological Dysfunction I",
		"Subject": "PHYT",
		"Level": "7215",
		"Hours": "4",
		"CRN": "40638",
		"Meeting": [
			{
				"days": "MF",
				"hours": "09:00  AM - 11:50  AM"
			},
			{
				"days": "MF",
				"hours": "09:00  AM - 11:50  AM"
			}
		],
		"Campus": "UT Chattanooga"
	},
	{
		"Title": "Physical Management of Patients with Neurological Dysfunction I",
		"Subject": "PHYT",
		"Level": "7215",
		"Hours": "4",
		"CRN": "43911",
		"Meeting": [
			{
				"days": "MF",
				"hours": "09:00  AM - 11:50  AM"
			},
			{
				"days": "MF",
				"hours": "09:00  AM - 11:50  AM"
			}
		],
		"Campus": "UT Chattanooga"
	},
	{
		"Title": "Human Growth and Development Across the Life Span",
		"Subject": "PHYT",
		"Level": "7216",
		"Hours": "3",
		"CRN": "40010",
		"Meeting": [
			{
				"days": "TT",
				"hours": "10:30  AM - 11:50  AM"
			}
		],
		"Campus": "UT Chattanooga"
	},
	{
		"Title": "Human Growth and Development Across the Life Span",
		"Subject": "PHYT",
		"Level": "7216",
		"Hours": "3",
		"CRN": "43912",
		"Meeting": [
			{
				"days": "TT",
				"hours": "10:30  AM - 11:50  AM"
			}
		],
		"Campus": "UT Chattanooga"
	},
	{
		"Title": "Clinical Education II",
		"Subject": "PHYT",
		"Level": "7231",
		"Hours": "4",
		"CRN": "43705",
		"Meeting": [
			{
				"days": "",
				"hours": " - "
			}
		],
		"Campus": "UT Chattanooga"
	},
	{
		"Title": "Clinical Applications",
		"Subject": "PHYT",
		"Level": "7233",
		"Hours": "1",
		"CRN": "41798",
		"Meeting": [
			{
				"days": "W",
				"hours": "07:30  AM - 09:50  AM"
			}
		],
		"Campus": "UT Chattanooga"
	},
	{
		"Title": "Developing a Case Report",
		"Subject": "PHYT",
		"Level": "7234",
		"Hours": "1",
		"CRN": "41799",
		"Meeting": [
			{
				"days": "TT",
				"hours": "02:30  PM - 03:20  PM"
			},
			{
				"days": "TT",
				"hours": "02:30  PM - 03:20  PM"
			}
		],
		"Campus": "UT Chattanooga"
	},
	{
		"Title": "Developing a Case Report",
		"Subject": "PHYT",
		"Level": "7234",
		"Hours": "1",
		"CRN": "43712",
		"Meeting": [
			{
				"days": "TT",
				"hours": "02:30  PM - 03:20  PM"
			},
			{
				"days": "",
				"hours": " - "
			}
		],
		"Campus": "UT Chattanooga"
	},
	{
		"Title": "Advanced Clinical Practice: Geriatric Neurorehabilitation",
		"Subject": "PHYT",
		"Level": "7302",
		"Hours": "3",
		"CRN": "41800",
		"Meeting": [
			{
				"days": "T",
				"hours": "01:00  PM - 03:50  PM"
			},
			{
				"days": "T",
				"hours": "01:00  PM - 03:50  PM"
			}
		],
		"Campus": "UT Chattanooga"
	},
	{
		"Title": "Advanced Clinical Orthopedics",
		"Subject": "PHYT",
		"Level": "7303",
		"Hours": "3",
		"CRN": "40012",
		"Meeting": [
			{
				"days": "MW",
				"hours": "01:00  PM - 04:20  PM"
			},
			{
				"days": "T",
				"hours": "01:00  PM - 05:00  PM"
			}
		],
		"Campus": "UT Chattanooga"
	},
	{
		"Title": "Advanced Manual Therapy",
		"Subject": "PHYT",
		"Level": "7305",
		"Hours": "3",
		"CRN": "40013",
		"Meeting": [
			{
				"days": "TT",
				"hours": "08:00  AM - 11:50  AM"
			}
		],
		"Campus": "UT Chattanooga"
	},
	{
		"Title": "Advanced Sports Physical Therapy",
		"Subject": "PHYT",
		"Level": "7306",
		"Hours": "3",
		"CRN": "40664",
		"Meeting": [
			{
				"days": "W",
				"hours": "09:30  AM - 11:50  AM"
			},
			{
				"days": "W",
				"hours": "09:30  AM - 11:50  AM"
			},
			{
				"days": "M",
				"hours": "01:00  PM - 03:50  PM"
			},
			{
				"days": "M",
				"hours": "01:00  PM - 03:50  PM"
			}
		],
		"Campus": "UT Chattanooga"
	},
	{
		"Title": "Movement Disorders",
		"Subject": "PHYT",
		"Level": "7312",
		"Hours": "2",
		"CRN": "40665",
		"Meeting": [
			{
				"days": "M",
				"hours": "08:30  AM - 11:50  AM"
			}
		],
		"Campus": "UT Chattanooga"
	},
	{
		"Title": "Applied Patient/Client Management",
		"Subject": "PHYT",
		"Level": "7315",
		"Hours": "2",
		"CRN": "40011",
		"Meeting": [
			{
				"days": "T",
				"hours": "01:00  PM - 04:20  PM"
			}
		],
		"Campus": "UT Chattanooga"
	},
	{
		"Title": "Applied Patient/Client Management",
		"Subject": "PHYT",
		"Level": "7315",
		"Hours": "2",
		"CRN": "43817",
		"Meeting": [
			{
				"days": "T",
				"hours": "01:00  PM - 04:20  PM"
			}
		],
		"Campus": "UT Chattanooga"
	},
	{
		"Title": "Licensure Preparation I",
		"Subject": "PHYT",
		"Level": "7316",
		"Hours": "1",
		"CRN": "40917",
		"Meeting": [
			{
				"days": "F",
				"hours": "09:00  AM - 10:20  AM"
			}
		],
		"Campus": "UT Chattanooga"
	}
]