[
	{
		"Title": "The First Year Experience",
		"Subject": "USTU",
		"Level": "1250",
		"Hours": "1",
		"CRN": "40876",
		"Meeting": [
			{
				"days": "W",
				"hours": "11:00  AM - 11:50  AM"
			}
		],
		"Campus": "UT Chattanooga"
	},
	{
		"Title": "The First Year Experience",
		"Subject": "USTU",
		"Level": "1250",
		"Hours": "1",
		"CRN": "40879",
		"Meeting": [
			{
				"days": "M",
				"hours": "01:00  PM - 01:50  PM"
			}
		],
		"Campus": "UT Chattanooga"
	},
	{
		"Title": "The First Year Experience",
		"Subject": "USTU",
		"Level": "1250",
		"Hours": "1",
		"CRN": "40880",
		"Meeting": [
			{
				"days": "W",
				"hours": "01:00  PM - 01:50  PM"
			}
		],
		"Campus": "UT Chattanooga"
	},
	{
		"Title": "The First Year Experience",
		"Subject": "USTU",
		"Level": "1250",
		"Hours": "1",
		"CRN": "40924",
		"Meeting": [
			{
				"days": "T",
				"hours": "12:15  PM - 01:05  PM"
			}
		],
		"Campus": "UT Chattanooga"
	},
	{
		"Title": "The First Year Experience",
		"Subject": "USTU",
		"Level": "1250",
		"Hours": "1",
		"CRN": "43844",
		"Meeting": [
			{
				"days": "T",
				"hours": "01:40  PM - 02:55  PM"
			}
		],
		"Campus": "UT Chattanooga"
	},
	{
		"Title": "The First Year Experience",
		"Subject": "USTU",
		"Level": "1250",
		"Hours": "1",
		"CRN": "40877",
		"Meeting": [
			{
				"days": "F",
				"hours": "01:00  PM - 01:50  PM"
			}
		],
		"Campus": "UT Chattanooga"
	},
	{
		"Title": "The First Year Experience",
		"Subject": "USTU",
		"Level": "1250",
		"Hours": "1",
		"CRN": "41826",
		"Meeting": [
			{
				"days": "W",
				"hours": "02:00  PM - 02:50  PM"
			}
		],
		"Campus": "UT Chattanooga"
	},
	{
		"Title": "The First Year Experience",
		"Subject": "USTU",
		"Level": "1250",
		"Hours": "1",
		"CRN": "40878",
		"Meeting": [
			{
				"days": "T",
				"hours": "01:40  PM - 02:30  PM"
			}
		],
		"Campus": "UT Chattanooga"
	},
	{
		"Title": "The First Year Experience",
		"Subject": "USTU",
		"Level": "1250",
		"Hours": "1",
		"CRN": "40882",
		"Meeting": [
			{
				"days": "T",
				"hours": "10:50  AM - 11:40  AM"
			}
		],
		"Campus": "UT Chattanooga"
	},
	{
		"Title": "The First Year Experience",
		"Subject": "USTU",
		"Level": "1250",
		"Hours": "1",
		"CRN": "43847",
		"Meeting": [
			{
				"days": "F",
				"hours": "01:00  PM - 01:50  PM"
			}
		],
		"Campus": "UT Chattanooga"
	},
	{
		"Title": "The First Year Experience",
		"Subject": "USTU",
		"Level": "1250",
		"Hours": "1",
		"CRN": "41040",
		"Meeting": [
			{
				"days": "TT",
				"hours": "10:50  AM - 12:05  PM"
			}
		],
		"Campus": "UT Chattanooga"
	},
	{
		"Title": "The First Year Experience",
		"Subject": "USTU",
		"Level": "1250",
		"Hours": "1",
		"CRN": "42002",
		"Meeting": [
			{
				"days": "MW",
				"hours": "11:00  AM - 11:50  AM"
			}
		],
		"Campus": "UT Chattanooga"
	},
	{
		"Title": "The First Year Experience",
		"Subject": "USTU",
		"Level": "1250",
		"Hours": "1",
		"CRN": "42003",
		"Meeting": [
			{
				"days": "MW",
				"hours": "01:00  PM - 01:50  PM"
			}
		],
		"Campus": "UT Chattanooga"
	},
	{
		"Title": "The First Year Experience",
		"Subject": "USTU",
		"Level": "1250",
		"Hours": "1",
		"CRN": "42004",
		"Meeting": [
			{
				"days": "TT",
				"hours": "01:40  PM - 02:30  PM"
			}
		],
		"Campus": "UT Chattanooga"
	},
	{
		"Title": "The First Year Experience",
		"Subject": "USTU",
		"Level": "1250",
		"Hours": "1",
		"CRN": "40875",
		"Meeting": [
			{
				"days": "W",
				"hours": "10:00  AM - 10:50  AM"
			}
		],
		"Campus": "UT Chattanooga"
	},
	{
		"Title": "The First Year Experience",
		"Subject": "USTU",
		"Level": "1250",
		"Hours": "1",
		"CRN": "43000",
		"Meeting": [
			{
				"days": "W",
				"hours": "03:00  PM - 03:50  PM"
			}
		],
		"Campus": "UT Chattanooga"
	},
	{
		"Title": "MINDSET: Soaring to New Heights",
		"Subject": "USTU",
		"Level": "1252",
		"Hours": "1",
		"CRN": "43185",
		"Meeting": [
			{
				"days": "",
				"hours": " - "
			}
		],
		"Campus": "UT Chattanooga"
	},
	{
		"Title": "Exploring Majors and Decision Making",
		"Subject": "USTU",
		"Level": "1300",
		"Hours": "2",
		"CRN": "40964",
		"Meeting": [
			{
				"days": "TT",
				"hours": "01:40  PM - 02:55  PM"
			}
		],
		"Campus": "UT Chattanooga"
	},
	{
		"Title": "Exploring Majors and Decision Making",
		"Subject": "USTU",
		"Level": "1300",
		"Hours": "2",
		"CRN": "43487",
		"Meeting": [
			{
				"days": "MW",
				"hours": "02:00  PM - 03:15  PM"
			}
		],
		"Campus": "UT Chattanooga"
	},
	{
		"Title": "ASPIRE",
		"Subject": "USTU",
		"Level": "1999R",
		"Hours": "1",
		"CRN": "42941",
		"Meeting": [
			{
				"days": "W",
				"hours": "04:00  PM - 04:50  PM"
			}
		],
		"Campus": "UT Chattanooga"
	},
	{
		"Title": "Science Concepts and Perspectives",
		"Subject": "USTU",
		"Level": "3110",
		"Hours": "3",
		"CRN": "40639",
		"Meeting": [
			{
				"days": "M",
				"hours": "12:30  PM - 03:00  PM"
			}
		],
		"Campus": "UT Chattanooga"
	},
	{
		"Title": "Social Studies Topics Concepts and Perspectives",
		"Subject": "USTU",
		"Level": "3200",
		"Hours": "3",
		"CRN": "40168",
		"Meeting": [
			{
				"days": "M",
				"hours": "05:00  PM - 07:30  PM"
			}
		],
		"Campus": "UT Chattanooga"
	},
	{
		"Title": "Social Studies Topics Concepts and Perspectives",
		"Subject": "USTU",
		"Level": "3200",
		"Hours": "3",
		"CRN": "43694",
		"Meeting": [
			{
				"days": "T",
				"hours": "10:50  AM - 01:30  PM"
			}
		],
		"Campus": "UT Chattanooga"
	},
	{
		"Title": "Concepts of Language Literacy: Acquisition, Development and Usage",
		"Subject": "USTU",
		"Level": "3400",
		"Hours": "3",
		"CRN": "42656",
		"Meeting": [
			{
				"days": "T",
				"hours": "12:15  PM - 02:55  PM"
			}
		],
		"Campus": "UT Chattanooga"
	}
]