[
	{
		"Title": "Introduction to Electrical Engineering",
		"Subject": "ENEE",
		"Level": "1010",
		"Hours": "3",
		"CRN": "42542",
		"Meeting": [
			{
				"days": "TT",
				"hours": "10:50  AM - 12:05  PM"
			}
		],
		"Campus": "UT Chattanooga"
	},
	{
		"Title": "Engineering Programming",
		"Subject": "ENEE",
		"Level": "2250",
		"Hours": "3",
		"CRN": "40719",
		"Meeting": [
			{
				"days": "MWF",
				"hours": "08:00  AM - 08:50  AM"
			}
		],
		"Campus": "UT Chattanooga"
	},
	{
		"Title": "Electrical Circuits I",
		"Subject": "ENEE",
		"Level": "2700",
		"Hours": "3",
		"CRN": "40720",
		"Meeting": [
			{
				"days": "TT",
				"hours": "09:25  AM - 10:40  AM"
			}
		],
		"Campus": "UT Chattanooga"
	},
	{
		"Title": "Electrical Circuits I",
		"Subject": "ENEE",
		"Level": "2700",
		"Hours": "3",
		"CRN": "40795",
		"Meeting": [
			{
				"days": "TT",
				"hours": "03:05  PM - 04:20  PM"
			}
		],
		"Campus": "UT Chattanooga"
	},
	{
		"Title": "Electrical Circuits Laboratory",
		"Subject": "ENEE",
		"Level": "2710L",
		"Hours": "1",
		"CRN": "40980",
		"Meeting": [
			{
				"days": "M",
				"hours": "09:00  AM - 11:50  AM"
			}
		],
		"Campus": "UT Chattanooga"
	},
	{
		"Title": "Signals and Systems",
		"Subject": "ENEE",
		"Level": "3250",
		"Hours": "3",
		"CRN": "40372",
		"Meeting": [
			{
				"days": "TT",
				"hours": "08:00  AM - 09:15  AM"
			}
		],
		"Campus": "UT Chattanooga"
	},
	{
		"Title": "Signals and Systems",
		"Subject": "ENEE",
		"Level": "3250",
		"Hours": "3",
		"CRN": "41188",
		"Meeting": [
			{
				"days": "TT",
				"hours": "10:50  AM - 12:05  PM"
			}
		],
		"Campus": "UT Chattanooga"
	},
	{
		"Title": "Energy Conversion and Electronics",
		"Subject": "ENEE",
		"Level": "3700",
		"Hours": "3",
		"CRN": "41172",
		"Meeting": [
			{
				"days": "TT",
				"hours": "08:00  AM - 09:15  AM"
			}
		],
		"Campus": "UT Chattanooga"
	},
	{
		"Title": "Analog Electronics",
		"Subject": "ENEE",
		"Level": "3720",
		"Hours": "3",
		"CRN": "41201",
		"Meeting": [
			{
				"days": "TT",
				"hours": "12:15  PM - 01:30  PM"
			}
		],
		"Campus": "UT Chattanooga"
	},
	{
		"Title": "Analog Electronics Laboratory",
		"Subject": "ENEE",
		"Level": "3720L",
		"Hours": "1",
		"CRN": "41248",
		"Meeting": [
			{
				"days": "T",
				"hours": "01:40  PM - 04:20  PM"
			}
		],
		"Campus": "UT Chattanooga"
	},
	{
		"Title": "Analog Electronics Laboratory",
		"Subject": "ENEE",
		"Level": "3720L",
		"Hours": "1",
		"CRN": "40557",
		"Meeting": [
			{
				"days": "T",
				"hours": "01:40  PM - 04:20  PM"
			}
		],
		"Campus": "UT Chattanooga"
	},
	{
		"Title": "Electromagnetic Fields and Waves",
		"Subject": "ENEE",
		"Level": "3750",
		"Hours": "3",
		"CRN": "40374",
		"Meeting": [
			{
				"days": "MWF",
				"hours": "02:00  PM - 02:50  PM"
			}
		],
		"Campus": "UT Chattanooga"
	},
	{
		"Title": "Modern Control Systems Analysis and Design",
		"Subject": "ENEE",
		"Level": "3790",
		"Hours": "3",
		"CRN": "42543",
		"Meeting": [
			{
				"days": "TT",
				"hours": "12:15  PM - 01:30  PM"
			}
		],
		"Campus": "UT Chattanooga"
	},
	{
		"Title": "Electrical Energy Conversion",
		"Subject": "ENEE",
		"Level": "3800",
		"Hours": "3",
		"CRN": "40721",
		"Meeting": [
			{
				"days": "MW",
				"hours": "03:25  PM - 04:40  PM"
			}
		],
		"Campus": "UT Chattanooga"
	},
	{
		"Title": "Electrical Energy Conversion Laboratory",
		"Subject": "ENEE",
		"Level": "3800L",
		"Hours": "1",
		"CRN": "41039",
		"Meeting": [
			{
				"days": "M",
				"hours": "09:00  AM - 11:50  AM"
			}
		],
		"Campus": "UT Chattanooga"
	},
	{
		"Title": "Electrical Energy Conversion Laboratory",
		"Subject": "ENEE",
		"Level": "3800L",
		"Hours": "1",
		"CRN": "40723",
		"Meeting": [
			{
				"days": "M",
				"hours": "05:15  PM - 08:00  PM"
			}
		],
		"Campus": "UT Chattanooga"
	},
	{
		"Title": "Interdisciplinary Design Project I",
		"Subject": "ENEE",
		"Level": "3850",
		"Hours": "3",
		"CRN": "41391",
		"Meeting": [
			{
				"days": "TT",
				"hours": "03:05  PM - 04:40  PM"
			}
		],
		"Campus": "UT Chattanooga"
	},
	{
		"Title": "Fuzzy Logic and Intelligent Controls Application",
		"Subject": "ENEE",
		"Level": "4330",
		"Hours": "3",
		"CRN": "42638",
		"Meeting": [
			{
				"days": "TT",
				"hours": "09:25  AM - 10:40  AM"
			}
		],
		"Campus": "UT Chattanooga"
	},
	{
		"Title": "Protective Relaying",
		"Subject": "ENEE",
		"Level": "4620",
		"Hours": "3",
		"CRN": "40915",
		"Meeting": [
			{
				"days": "TT",
				"hours": "05:15  PM - 06:30  PM"
			}
		],
		"Campus": "UT Chattanooga"
	},
	{
		"Title": "Embedded Systems",
		"Subject": "ENEE",
		"Level": "4710",
		"Hours": "4",
		"CRN": "41004",
		"Meeting": [
			{
				"days": "W",
				"hours": "12:00  PM - 01:25  PM"
			},
			{
				"days": "TT",
				"hours": "01:40  PM - 02:55  PM"
			}
		],
		"Campus": "UT Chattanooga"
	},
	{
		"Title": "Embedded Systems",
		"Subject": "ENEE",
		"Level": "4710",
		"Hours": "4",
		"CRN": "41880",
		"Meeting": [
			{
				"days": "W",
				"hours": "01:25  PM - 02:50  PM"
			},
			{
				"days": "TT",
				"hours": "01:40  PM - 02:55  PM"
			}
		],
		"Campus": "UT Chattanooga"
	},
	{
		"Title": "Linear Controls and Drives Laboratory",
		"Subject": "ENEE",
		"Level": "4790L",
		"Hours": "1",
		"CRN": "40981",
		"Meeting": [
			{
				"days": "T",
				"hours": "10:50  AM - 01:30  PM"
			}
		],
		"Campus": "UT Chattanooga"
	},
	{
		"Title": "Linear Controls and Drives Laboratory",
		"Subject": "ENEE",
		"Level": "4790L",
		"Hours": "1",
		"CRN": "41976",
		"Meeting": [
			{
				"days": "T",
				"hours": "10:50  AM - 01:30  PM"
			}
		],
		"Campus": "UT Chattanooga"
	},
	{
		"Title": "Digital Signal Processing",
		"Subject": "ENEE",
		"Level": "4820",
		"Hours": "3",
		"CRN": "42682",
		"Meeting": [
			{
				"days": "MW",
				"hours": "11:00  AM - 12:15  PM"
			}
		],
		"Campus": "UT Chattanooga"
	},
	{
		"Title": "Interdisciplinary Design Project II",
		"Subject": "ENEE",
		"Level": "4850",
		"Hours": "3",
		"CRN": "41395",
		"Meeting": [
			{
				"days": "TT",
				"hours": "03:05  PM - 04:20  PM"
			}
		],
		"Campus": "UT Chattanooga"
	},
	{
		"Title": "Individual Studies",
		"Subject": "ENEE",
		"Level": "4998R",
		"Hours": "1 TO 9",
		"CRN": "43096",
		"Meeting": [
			{
				"days": "",
				"hours": " - "
			}
		],
		"Campus": "UT Chattanooga"
	},
	{
		"Title": "Individual Studies",
		"Subject": "ENEE",
		"Level": "4998R",
		"Hours": "3",
		"CRN": "43143",
		"Meeting": [
			{
				"days": "",
				"hours": " - "
			}
		],
		"Campus": "UT Chattanooga"
	},
	{
		"Title": "Individual Studies",
		"Subject": "ENEE",
		"Level": "4998R",
		"Hours": "1",
		"CRN": "43144",
		"Meeting": [
			{
				"days": "",
				"hours": " - "
			}
		],
		"Campus": "UT Chattanooga"
	},
	{
		"Title": "Power Systems Stability & Control",
		"Subject": "ENEE",
		"Level": "4999R",
		"Hours": "3",
		"CRN": "42758",
		"Meeting": [
			{
				"days": "MW",
				"hours": "05:15  PM - 06:30  PM"
			}
		],
		"Campus": "UT Chattanooga"
	},
	{
		"Title": "Linear Systems",
		"Subject": "ENEE",
		"Level": "4999R",
		"Hours": "3",
		"CRN": "42756",
		"Meeting": [
			{
				"days": "MW",
				"hours": "08:00  AM - 09:15  AM"
			}
		],
		"Campus": "UT Chattanooga"
	},
	{
		"Title": "Communication Networks",
		"Subject": "ENEE",
		"Level": "4999R",
		"Hours": "3",
		"CRN": "42754",
		"Meeting": [
			{
				"days": "MW",
				"hours": "03:25  PM - 04:40  PM"
			}
		],
		"Campus": "UT Chattanooga"
	},
	{
		"Title": "Communication Networks",
		"Subject": "ENEE",
		"Level": "4999R",
		"Hours": "3",
		"CRN": "42755",
		"Meeting": [
			{
				"days": "",
				"hours": " - "
			}
		],
		"Campus": "UTC Online"
	},
	{
		"Title": "Power Electronics and Drives",
		"Subject": "ENEE",
		"Level": "4999R",
		"Hours": "3",
		"CRN": "43100",
		"Meeting": [
			{
				"days": "MW",
				"hours": "02:00  PM - 03:15  PM"
			}
		],
		"Campus": "UT Chattanooga"
	},
	{
		"Title": "Group Studies",
		"Subject": "ENEE",
		"Level": "4999R",
		"Hours": "1",
		"CRN": "43153",
		"Meeting": [
			{
				"days": "",
				"hours": " - "
			}
		],
		"Campus": "UT Chattanooga"
	},
	{
		"Title": "Group Studies",
		"Subject": "ENEE",
		"Level": "4999R",
		"Hours": "1",
		"CRN": "44029",
		"Meeting": [
			{
				"days": "",
				"hours": " - "
			}
		],
		"Campus": "UT Chattanooga"
	},
	{
		"Title": "Linear Systems",
		"Subject": "ENEE",
		"Level": "5020",
		"Hours": "3",
		"CRN": "40553",
		"Meeting": [
			{
				"days": "MW",
				"hours": "08:00  AM - 09:15  AM"
			}
		],
		"Campus": "UT Chattanooga"
	},
	{
		"Title": "Linear Systems",
		"Subject": "ENEE",
		"Level": "5020",
		"Hours": "3",
		"CRN": "40916",
		"Meeting": [
			{
				"days": "",
				"hours": " - "
			}
		],
		"Campus": "UTC Online"
	},
	{
		"Title": "Digital Signal Processing",
		"Subject": "ENEE",
		"Level": "5030",
		"Hours": "3",
		"CRN": "43650",
		"Meeting": [
			{
				"days": "MW",
				"hours": "11:00  AM - 12:15  PM"
			}
		],
		"Campus": "UT Chattanooga"
	},
	{
		"Title": "Power Electronics and Drives",
		"Subject": "ENEE",
		"Level": "5610",
		"Hours": "3",
		"CRN": "43891",
		"Meeting": [
			{
				"days": "MW",
				"hours": "02:00  PM - 03:15  PM"
			}
		],
		"Campus": "UT Chattanooga"
	},
	{
		"Title": "Power System Protection",
		"Subject": "ENEE",
		"Level": "5620",
		"Hours": "3",
		"CRN": "40722",
		"Meeting": [
			{
				"days": "",
				"hours": " - "
			}
		],
		"Campus": "UTC Online"
	},
	{
		"Title": "Power System Protection",
		"Subject": "ENEE",
		"Level": "5620",
		"Hours": "3",
		"CRN": "40815",
		"Meeting": [
			{
				"days": "TT",
				"hours": "05:15  PM - 06:30  PM"
			}
		],
		"Campus": "UT Chattanooga"
	},
	{
		"Title": "Microcomputer Applications",
		"Subject": "ENEE",
		"Level": "5700",
		"Hours": "3",
		"CRN": "41454",
		"Meeting": [
			{
				"days": "W",
				"hours": "12:00  PM - 02:50  PM"
			},
			{
				"days": "TT",
				"hours": "01:40  PM - 02:55  PM"
			}
		],
		"Campus": "UT Chattanooga"
	},
	{
		"Title": "Special Topics in Engineering",
		"Subject": "ENEE",
		"Level": "5910R",
		"Hours": "3",
		"CRN": "42760",
		"Meeting": [
			{
				"days": "",
				"hours": " - "
			}
		],
		"Campus": "UTC Online"
	},
	{
		"Title": "Micro-Controller-Based System Control",
		"Subject": "ENEE",
		"Level": "5910R",
		"Hours": "3",
		"CRN": "43082",
		"Meeting": [
			{
				"days": "",
				"hours": " - "
			}
		],
		"Campus": "UT Chattanooga"
	},
	{
		"Title": "Special Topics in Engineering",
		"Subject": "ENEE",
		"Level": "5910R",
		"Hours": "3",
		"CRN": "41208",
		"Meeting": [
			{
				"days": "",
				"hours": " - "
			}
		],
		"Campus": "UT Chattanooga"
	},
	{
		"Title": "Special Topics in Engineering",
		"Subject": "ENEE",
		"Level": "5910R",
		"Hours": "3",
		"CRN": "42681",
		"Meeting": [
			{
				"days": "TT",
				"hours": "09:25  AM - 10:40  AM"
			}
		],
		"Campus": "UT Chattanooga"
	},
	{
		"Title": "VLSI Design",
		"Subject": "ENEE",
		"Level": "5910R",
		"Hours": "3",
		"CRN": "43944",
		"Meeting": [
			{
				"days": "",
				"hours": " - "
			}
		],
		"Campus": "UT Chattanooga"
	},
	{
		"Title": "System Control Studies II",
		"Subject": "ENEE",
		"Level": "5910R",
		"Hours": "3",
		"CRN": "44002",
		"Meeting": [
			{
				"days": "",
				"hours": " - "
			}
		],
		"Campus": "UT Chattanooga"
	},
	{
		"Title": "Special Topics in Engineering: Power Systems Stability & Control",
		"Subject": "ENEE",
		"Level": "5910R",
		"Hours": "3",
		"CRN": "42759",
		"Meeting": [
			{
				"days": "MW",
				"hours": "05:15  PM - 06:30  PM"
			}
		],
		"Campus": "UT Chattanooga"
	},
	{
		"Title": "Research",
		"Subject": "ENEE",
		"Level": "5998R",
		"Hours": "3",
		"CRN": "44011",
		"Meeting": [
			{
				"days": "",
				"hours": " - "
			}
		],
		"Campus": "UTC Online"
	},
	{
		"Title": "Thesis",
		"Subject": "ENEE",
		"Level": "5999R",
		"Hours": "1 TO 6",
		"CRN": "41869",
		"Meeting": [
			{
				"days": "",
				"hours": " - "
			}
		],
		"Campus": "UT Chattanooga"
	},
	{
		"Title": "Thesis",
		"Subject": "ENEE",
		"Level": "5999R",
		"Hours": "3",
		"CRN": "41463",
		"Meeting": [
			{
				"days": "",
				"hours": " - "
			}
		],
		"Campus": "UT Chattanooga"
	},
	{
		"Title": "Thesis",
		"Subject": "ENEE",
		"Level": "5999R",
		"Hours": "1 TO 6",
		"CRN": "41867",
		"Meeting": [
			{
				"days": "",
				"hours": " - "
			}
		],
		"Campus": "UT Chattanooga"
	},
	{
		"Title": "Thesis",
		"Subject": "ENEE",
		"Level": "5999R",
		"Hours": "1 TO 6",
		"CRN": "44001",
		"Meeting": [
			{
				"days": "",
				"hours": " - "
			}
		],
		"Campus": "UT Chattanooga"
	},
	{
		"Title": "Thesis",
		"Subject": "ENEE",
		"Level": "5999R",
		"Hours": "1 TO 6",
		"CRN": "41868",
		"Meeting": [
			{
				"days": "",
				"hours": " - "
			}
		],
		"Campus": "UT Chattanooga"
	},
	{
		"Title": "Doctoral Research",
		"Subject": "ENEE",
		"Level": "7950R",
		"Hours": "1 TO 9",
		"CRN": "43706",
		"Meeting": [
			{
				"days": "",
				"hours": " - "
			}
		],
		"Campus": "UT Chattanooga"
	},
	{
		"Title": "Dissertation",
		"Subject": "ENEE",
		"Level": "7999R",
		"Hours": "1 TO 12",
		"CRN": "41896",
		"Meeting": [
			{
				"days": "",
				"hours": " - "
			}
		],
		"Campus": "UT Chattanooga"
	},
	{
		"Title": "Dissertation",
		"Subject": "ENEE",
		"Level": "7999R",
		"Hours": "1 TO 12",
		"CRN": "41925",
		"Meeting": [
			{
				"days": "",
				"hours": " - "
			}
		],
		"Campus": "UT Chattanooga"
	}
]