[
	{
		"Title": "Life on Earth",
		"Subject": "BIOL",
		"Level": "1050",
		"Hours": "4",
		"CRN": "42992",
		"Meeting": [
			{
				"days": "",
				"hours": " - "
			}
		],
		"Campus": "UTC Online"
	},
	{
		"Title": "Life on Earth Laboratory",
		"Subject": "BIOL",
		"Level": "1050L",
		"Hours": "0",
		"CRN": "42993",
		"Meeting": [
			{
				"days": "",
				"hours": " - "
			}
		],
		"Campus": "UTC Online"
	},
	{
		"Title": "Conservation of Biodiversity",
		"Subject": "BIOL",
		"Level": "1100",
		"Hours": "3",
		"CRN": "40170",
		"Meeting": [
			{
				"days": "",
				"hours": " - "
			}
		],
		"Campus": "UT Chattanooga"
	},
	{
		"Title": "Conservation of Biodiversity",
		"Subject": "BIOL",
		"Level": "1100",
		"Hours": "3",
		"CRN": "41219",
		"Meeting": [
			{
				"days": "",
				"hours": " - "
			}
		],
		"Campus": "UT Chattanooga"
	},
	{
		"Title": "Conservation of Biodiversity",
		"Subject": "BIOL",
		"Level": "1100",
		"Hours": "3",
		"CRN": "42996",
		"Meeting": [
			{
				"days": "",
				"hours": " - "
			}
		],
		"Campus": "UT Chattanooga"
	},
	{
		"Title": "Principles of Biology I",
		"Subject": "BIOL",
		"Level": "1110",
		"Hours": "4",
		"CRN": "41005",
		"Meeting": [
			{
				"days": "MWF",
				"hours": "09:00  AM - 09:50  AM"
			}
		],
		"Campus": "UT Chattanooga"
	},
	{
		"Title": "Principles of Biology I",
		"Subject": "BIOL",
		"Level": "1110",
		"Hours": "4",
		"CRN": "40732",
		"Meeting": [
			{
				"days": "MWF",
				"hours": "10:00  AM - 10:50  AM"
			}
		],
		"Campus": "UT Chattanooga"
	},
	{
		"Title": "Principles of Biology I",
		"Subject": "BIOL",
		"Level": "1110",
		"Hours": "4",
		"CRN": "40731",
		"Meeting": [
			{
				"days": "MWF",
				"hours": "11:00  AM - 11:50  AM"
			}
		],
		"Campus": "UT Chattanooga"
	},
	{
		"Title": "Principles of Biology I",
		"Subject": "BIOL",
		"Level": "1110",
		"Hours": "4",
		"CRN": "43221",
		"Meeting": [
			{
				"days": "MWF",
				"hours": "12:00  PM - 12:50  PM"
			}
		],
		"Campus": "UT Chattanooga"
	},
	{
		"Title": "Principles of Biology I",
		"Subject": "BIOL",
		"Level": "1110",
		"Hours": "4",
		"CRN": "40733",
		"Meeting": [
			{
				"days": "MW",
				"hours": "05:00  PM - 06:15  PM"
			}
		],
		"Campus": "UT Chattanooga"
	},
	{
		"Title": "Principles of Biology I",
		"Subject": "BIOL",
		"Level": "1110",
		"Hours": "4",
		"CRN": "40173",
		"Meeting": [
			{
				"days": "TT",
				"hours": "10:50  AM - 12:05  PM"
			}
		],
		"Campus": "UT Chattanooga"
	},
	{
		"Title": "Principles of Biology I",
		"Subject": "BIOL",
		"Level": "1110",
		"Hours": "4",
		"CRN": "40172",
		"Meeting": [
			{
				"days": "",
				"hours": " - "
			}
		],
		"Campus": "UT Chattanooga"
	},
	{
		"Title": "Principles of Biology I Laboratory",
		"Subject": "BIOL",
		"Level": "1110L",
		"Hours": "0",
		"CRN": "40790",
		"Meeting": [
			{
				"days": "M",
				"hours": "10:00  AM - 11:50  AM"
			}
		],
		"Campus": "UT Chattanooga"
	},
	{
		"Title": "Principles of Biology I Laboratory",
		"Subject": "BIOL",
		"Level": "1110L",
		"Hours": "0",
		"CRN": "40175",
		"Meeting": [
			{
				"days": "M",
				"hours": "10:00  AM - 11:50  AM"
			}
		],
		"Campus": "UT Chattanooga"
	},
	{
		"Title": "Principles of Biology I Laboratory",
		"Subject": "BIOL",
		"Level": "1110L",
		"Hours": "0",
		"CRN": "40176",
		"Meeting": [
			{
				"days": "M",
				"hours": "12:00  PM - 01:50  PM"
			}
		],
		"Campus": "UT Chattanooga"
	},
	{
		"Title": "Principles of Biology I Laboratory",
		"Subject": "BIOL",
		"Level": "1110L",
		"Hours": "0",
		"CRN": "40177",
		"Meeting": [
			{
				"days": "M",
				"hours": "12:00  PM - 01:50  PM"
			}
		],
		"Campus": "UT Chattanooga"
	},
	{
		"Title": "Principles of Biology I Laboratory",
		"Subject": "BIOL",
		"Level": "1110L",
		"Hours": "0",
		"CRN": "40178",
		"Meeting": [
			{
				"days": "M",
				"hours": "02:00  PM - 03:50  PM"
			}
		],
		"Campus": "UT Chattanooga"
	},
	{
		"Title": "Principles of Biology I Laboratory",
		"Subject": "BIOL",
		"Level": "1110L",
		"Hours": "0",
		"CRN": "40179",
		"Meeting": [
			{
				"days": "M",
				"hours": "02:00  PM - 03:50  PM"
			}
		],
		"Campus": "UT Chattanooga"
	},
	{
		"Title": "Principles of Biology I Laboratory",
		"Subject": "BIOL",
		"Level": "1110L",
		"Hours": "0",
		"CRN": "40180",
		"Meeting": [
			{
				"days": "M",
				"hours": "04:00  PM - 05:50  PM"
			}
		],
		"Campus": "UT Chattanooga"
	},
	{
		"Title": "Principles of Biology I Laboratory",
		"Subject": "BIOL",
		"Level": "1110L",
		"Hours": "0",
		"CRN": "43050",
		"Meeting": [
			{
				"days": "M",
				"hours": "04:00  PM - 05:50  PM"
			}
		],
		"Campus": "UT Chattanooga"
	},
	{
		"Title": "Principles of Biology I Laboratory",
		"Subject": "BIOL",
		"Level": "1110L",
		"Hours": "0",
		"CRN": "40181",
		"Meeting": [
			{
				"days": "T",
				"hours": "08:50  AM - 10:40  AM"
			}
		],
		"Campus": "UT Chattanooga"
	},
	{
		"Title": "Principles of Biology I Laboratory",
		"Subject": "BIOL",
		"Level": "1110L",
		"Hours": "0",
		"CRN": "40182",
		"Meeting": [
			{
				"days": "T",
				"hours": "10:50  AM - 12:40  PM"
			}
		],
		"Campus": "UT Chattanooga"
	},
	{
		"Title": "Principles of Biology I Laboratory",
		"Subject": "BIOL",
		"Level": "1110L",
		"Hours": "0",
		"CRN": "43051",
		"Meeting": [
			{
				"days": "T",
				"hours": "10:50  AM - 12:40  PM"
			}
		],
		"Campus": "UT Chattanooga"
	},
	{
		"Title": "Principles of Biology I Laboratory",
		"Subject": "BIOL",
		"Level": "1110L",
		"Hours": "0",
		"CRN": "40183",
		"Meeting": [
			{
				"days": "T",
				"hours": "12:50  PM - 02:40  PM"
			}
		],
		"Campus": "UT Chattanooga"
	},
	{
		"Title": "Principles of Biology I Laboratory",
		"Subject": "BIOL",
		"Level": "1110L",
		"Hours": "0",
		"CRN": "43222",
		"Meeting": [
			{
				"days": "T",
				"hours": "12:50  PM - 02:40  PM"
			}
		],
		"Campus": "UT Chattanooga"
	},
	{
		"Title": "Principles of Biology I Laboratory",
		"Subject": "BIOL",
		"Level": "1110L",
		"Hours": "0",
		"CRN": "40185",
		"Meeting": [
			{
				"days": "T",
				"hours": "02:50  PM - 04:40  PM"
			}
		],
		"Campus": "UT Chattanooga"
	},
	{
		"Title": "Principles of Biology I Laboratory",
		"Subject": "BIOL",
		"Level": "1110L",
		"Hours": "0",
		"CRN": "43052",
		"Meeting": [
			{
				"days": "T",
				"hours": "02:50  PM - 04:40  PM"
			}
		],
		"Campus": "UT Chattanooga"
	},
	{
		"Title": "Principles of Biology I Laboratory",
		"Subject": "BIOL",
		"Level": "1110L",
		"Hours": "0",
		"CRN": "40186",
		"Meeting": [
			{
				"days": "T",
				"hours": "04:50  PM - 06:40  PM"
			}
		],
		"Campus": "UT Chattanooga"
	},
	{
		"Title": "Principles of Biology I Laboratory",
		"Subject": "BIOL",
		"Level": "1110L",
		"Hours": "0",
		"CRN": "40187",
		"Meeting": [
			{
				"days": "W",
				"hours": "09:00  AM - 10:50  AM"
			}
		],
		"Campus": "UT Chattanooga"
	},
	{
		"Title": "Principles of Biology I Laboratory",
		"Subject": "BIOL",
		"Level": "1110L",
		"Hours": "0",
		"CRN": "41261",
		"Meeting": [
			{
				"days": "W",
				"hours": "09:00  AM - 10:50  AM"
			}
		],
		"Campus": "UT Chattanooga"
	},
	{
		"Title": "Principles of Biology I Laboratory",
		"Subject": "BIOL",
		"Level": "1110L",
		"Hours": "0",
		"CRN": "40188",
		"Meeting": [
			{
				"days": "W",
				"hours": "11:00  AM - 12:50  PM"
			}
		],
		"Campus": "UT Chattanooga"
	},
	{
		"Title": "Principles of Biology I Laboratory",
		"Subject": "BIOL",
		"Level": "1110L",
		"Hours": "0",
		"CRN": "41262",
		"Meeting": [
			{
				"days": "W",
				"hours": "11:00  AM - 12:50  PM"
			}
		],
		"Campus": "UT Chattanooga"
	},
	{
		"Title": "Principles of Biology I Laboratory",
		"Subject": "BIOL",
		"Level": "1110L",
		"Hours": "0",
		"CRN": "40189",
		"Meeting": [
			{
				"days": "W",
				"hours": "01:00  PM - 02:50  PM"
			}
		],
		"Campus": "UT Chattanooga"
	},
	{
		"Title": "Principles of Biology I Laboratory",
		"Subject": "BIOL",
		"Level": "1110L",
		"Hours": "0",
		"CRN": "40190",
		"Meeting": [
			{
				"days": "W",
				"hours": "01:00  PM - 02:50  PM"
			}
		],
		"Campus": "UT Chattanooga"
	},
	{
		"Title": "Principles of Biology I Laboratory",
		"Subject": "BIOL",
		"Level": "1110L",
		"Hours": "0",
		"CRN": "41253",
		"Meeting": [
			{
				"days": "W",
				"hours": "03:00  PM - 04:50  PM"
			}
		],
		"Campus": "UT Chattanooga"
	},
	{
		"Title": "Principles of Biology I Laboratory",
		"Subject": "BIOL",
		"Level": "1110L",
		"Hours": "0",
		"CRN": "40191",
		"Meeting": [
			{
				"days": "W",
				"hours": "06:55  PM - 08:45  PM"
			}
		],
		"Campus": "UT Chattanooga"
	},
	{
		"Title": "Principles of Biology I Laboratory",
		"Subject": "BIOL",
		"Level": "1110L",
		"Hours": "0",
		"CRN": "40192",
		"Meeting": [
			{
				"days": "T",
				"hours": "10:50  AM - 12:40  PM"
			}
		],
		"Campus": "UT Chattanooga"
	},
	{
		"Title": "Principles of Biology I Laboratory",
		"Subject": "BIOL",
		"Level": "1110L",
		"Hours": "0",
		"CRN": "40193",
		"Meeting": [
			{
				"days": "T",
				"hours": "10:50  AM - 12:40  PM"
			}
		],
		"Campus": "UT Chattanooga"
	},
	{
		"Title": "Principles of Biology I Laboratory",
		"Subject": "BIOL",
		"Level": "1110L",
		"Hours": "0",
		"CRN": "40562",
		"Meeting": [
			{
				"days": "T",
				"hours": "12:50  PM - 02:40  PM"
			}
		],
		"Campus": "UT Chattanooga"
	},
	{
		"Title": "Principles of Biology I Laboratory",
		"Subject": "BIOL",
		"Level": "1110L",
		"Hours": "0",
		"CRN": "40565",
		"Meeting": [
			{
				"days": "T",
				"hours": "12:50  PM - 02:40  PM"
			}
		],
		"Campus": "UT Chattanooga"
	},
	{
		"Title": "Principles of Biology II",
		"Subject": "BIOL",
		"Level": "1120",
		"Hours": "4",
		"CRN": "40194",
		"Meeting": [
			{
				"days": "MWF",
				"hours": "10:00  AM - 10:50  AM"
			}
		],
		"Campus": "UT Chattanooga"
	},
	{
		"Title": "Principles of Biology II",
		"Subject": "BIOL",
		"Level": "1120",
		"Hours": "4",
		"CRN": "40796",
		"Meeting": [
			{
				"days": "TT",
				"hours": "08:00  AM - 09:15  AM"
			}
		],
		"Campus": "UT Chattanooga"
	},
	{
		"Title": "Principles of Biology II Laboratory",
		"Subject": "BIOL",
		"Level": "1120L",
		"Hours": "0",
		"CRN": "40195",
		"Meeting": [
			{
				"days": "W",
				"hours": "12:00  PM - 01:50  PM"
			}
		],
		"Campus": "UT Chattanooga"
	},
	{
		"Title": "Principles of Biology II Laboratory",
		"Subject": "BIOL",
		"Level": "1120L",
		"Hours": "0",
		"CRN": "40196",
		"Meeting": [
			{
				"days": "W",
				"hours": "02:30  PM - 04:20  PM"
			}
		],
		"Campus": "UT Chattanooga"
	},
	{
		"Title": "Principles of Biology II Laboratory",
		"Subject": "BIOL",
		"Level": "1120L",
		"Hours": "0",
		"CRN": "40197",
		"Meeting": [
			{
				"days": "T",
				"hours": "12:15  PM - 02:05  PM"
			}
		],
		"Campus": "UT Chattanooga"
	},
	{
		"Title": "Principles of Biology II Laboratory",
		"Subject": "BIOL",
		"Level": "1120L",
		"Hours": "0",
		"CRN": "40799",
		"Meeting": [
			{
				"days": "F",
				"hours": "10:00  AM - 11:50  AM"
			}
		],
		"Campus": "UT Chattanooga"
	},
	{
		"Title": "Principles of Biology II Laboratory",
		"Subject": "BIOL",
		"Level": "1120L",
		"Hours": "0",
		"CRN": "41064",
		"Meeting": [
			{
				"days": "F",
				"hours": "12:00  PM - 01:50  PM"
			}
		],
		"Campus": "UT Chattanooga"
	},
	{
		"Title": "Principles of Biology III",
		"Subject": "BIOL",
		"Level": "1130",
		"Hours": "3",
		"CRN": "40734",
		"Meeting": [
			{
				"days": "MWF",
				"hours": "11:00  AM - 11:50  AM"
			}
		],
		"Campus": "UT Chattanooga"
	},
	{
		"Title": "Principles of Biology III",
		"Subject": "BIOL",
		"Level": "1130",
		"Hours": "3",
		"CRN": "40735",
		"Meeting": [
			{
				"days": "",
				"hours": " - "
			}
		],
		"Campus": "UT Chattanooga"
	},
	{
		"Title": "Urban Gardening",
		"Subject": "BIOL",
		"Level": "1140",
		"Hours": "1",
		"CRN": "43120",
		"Meeting": [
			{
				"days": "T",
				"hours": "02:00  PM - 04:00  PM"
			}
		],
		"Campus": "UT Chattanooga"
	},
	{
		"Title": "Special Projects: Individual Studies",
		"Subject": "BIOL",
		"Level": "1999R",
		"Hours": "1",
		"CRN": "43501",
		"Meeting": [
			{
				"days": "",
				"hours": " - "
			}
		],
		"Campus": "UT Chattanooga"
	},
	{
		"Title": "Functional Human Anatomy",
		"Subject": "BIOL",
		"Level": "2060",
		"Hours": "4",
		"CRN": "40736",
		"Meeting": [
			{
				"days": "",
				"hours": " - "
			}
		],
		"Campus": "UT Chattanooga"
	},
	{
		"Title": "Functional Human Anatomy Laboratory",
		"Subject": "BIOL",
		"Level": "2060L",
		"Hours": "0",
		"CRN": "40753",
		"Meeting": [
			{
				"days": "W",
				"hours": "10:00  AM - 11:50  AM"
			}
		],
		"Campus": "UT Chattanooga"
	},
	{
		"Title": "Functional Human Anatomy Laboratory",
		"Subject": "BIOL",
		"Level": "2060L",
		"Hours": "0",
		"CRN": "40752",
		"Meeting": [
			{
				"days": "W",
				"hours": "12:00  PM - 01:50  PM"
			}
		],
		"Campus": "UT Chattanooga"
	},
	{
		"Title": "Functional Human Anatomy Laboratory",
		"Subject": "BIOL",
		"Level": "2060L",
		"Hours": "0",
		"CRN": "40750",
		"Meeting": [
			{
				"days": "W",
				"hours": "02:30  PM - 04:20  PM"
			}
		],
		"Campus": "UT Chattanooga"
	},
	{
		"Title": "Functional Human Anatomy Laboratory",
		"Subject": "BIOL",
		"Level": "2060L",
		"Hours": "0",
		"CRN": "40791",
		"Meeting": [
			{
				"days": "T",
				"hours": "10:15  AM - 12:05  PM"
			}
		],
		"Campus": "UT Chattanooga"
	},
	{
		"Title": "Functional Human Anatomy Laboratory",
		"Subject": "BIOL",
		"Level": "2060L",
		"Hours": "0",
		"CRN": "40754",
		"Meeting": [
			{
				"days": "T",
				"hours": "12:15  PM - 02:05  PM"
			}
		],
		"Campus": "UT Chattanooga"
	},
	{
		"Title": "Human Physiology",
		"Subject": "BIOL",
		"Level": "2080",
		"Hours": "4",
		"CRN": "40199",
		"Meeting": [
			{
				"days": "MWF",
				"hours": "10:00  AM - 10:50  AM"
			}
		],
		"Campus": "UT Chattanooga"
	},
	{
		"Title": "Human Physiology Laboratory",
		"Subject": "BIOL",
		"Level": "2080L",
		"Hours": "0",
		"CRN": "41264",
		"Meeting": [
			{
				"days": "",
				"hours": " - "
			}
		],
		"Campus": "UT Chattanooga"
	},
	{
		"Title": "Human Physiology Laboratory",
		"Subject": "BIOL",
		"Level": "2080L",
		"Hours": "0",
		"CRN": "41712",
		"Meeting": [
			{
				"days": "",
				"hours": " - "
			}
		],
		"Campus": "UT Chattanooga"
	},
	{
		"Title": "Human Physiology Laboratory",
		"Subject": "BIOL",
		"Level": "2080L",
		"Hours": "0",
		"CRN": "43223",
		"Meeting": [
			{
				"days": "",
				"hours": " - "
			}
		],
		"Campus": "UT Chattanooga"
	},
	{
		"Title": "Human Physiology Laboratory",
		"Subject": "BIOL",
		"Level": "2080L",
		"Hours": "0",
		"CRN": "43224",
		"Meeting": [
			{
				"days": "",
				"hours": " - "
			}
		],
		"Campus": "UT Chattanooga"
	},
	{
		"Title": "Microbiology and Health",
		"Subject": "BIOL",
		"Level": "2100",
		"Hours": "4",
		"CRN": "40202",
		"Meeting": [
			{
				"days": "",
				"hours": " - "
			}
		],
		"Campus": "UT Chattanooga"
	},
	{
		"Title": "Microbiology and Health Laboratory",
		"Subject": "BIOL",
		"Level": "2100L",
		"Hours": "0",
		"CRN": "40203",
		"Meeting": [
			{
				"days": "M",
				"hours": "12:00  PM - 01:50  PM"
			}
		],
		"Campus": "UT Chattanooga"
	},
	{
		"Title": "Microbiology and Health Laboratory",
		"Subject": "BIOL",
		"Level": "2100L",
		"Hours": "0",
		"CRN": "40204",
		"Meeting": [
			{
				"days": "M",
				"hours": "03:00  PM - 04:50  PM"
			}
		],
		"Campus": "UT Chattanooga"
	},
	{
		"Title": "Microbiology and Health Laboratory",
		"Subject": "BIOL",
		"Level": "2100L",
		"Hours": "0",
		"CRN": "40554",
		"Meeting": [
			{
				"days": "W",
				"hours": "12:00  PM - 01:50  PM"
			}
		],
		"Campus": "UT Chattanooga"
	},
	{
		"Title": "Microbiology and Health Laboratory",
		"Subject": "BIOL",
		"Level": "2100L",
		"Hours": "0",
		"CRN": "40755",
		"Meeting": [
			{
				"days": "W",
				"hours": "03:00  PM - 04:50  PM"
			}
		],
		"Campus": "UT Chattanooga"
	},
	{
		"Title": "Ecology",
		"Subject": "BIOL",
		"Level": "3060",
		"Hours": "3",
		"CRN": "40630",
		"Meeting": [
			{
				"days": "MWF",
				"hours": "09:00  AM - 09:50  AM"
			}
		],
		"Campus": "UT Chattanooga"
	},
	{
		"Title": "Ecology",
		"Subject": "BIOL",
		"Level": "3060",
		"Hours": "3",
		"CRN": "42074",
		"Meeting": [
			{
				"days": "TT",
				"hours": "08:00  AM - 09:15  AM"
			}
		],
		"Campus": "UT Chattanooga"
	},
	{
		"Title": "Ecology",
		"Subject": "BIOL",
		"Level": "3060",
		"Hours": "3",
		"CRN": "42560",
		"Meeting": [
			{
				"days": "",
				"hours": " - "
			}
		],
		"Campus": "UT Chattanooga"
	},
	{
		"Title": "Ecology Laboratory",
		"Subject": "BIOL",
		"Level": "3070",
		"Hours": "1",
		"CRN": "40206",
		"Meeting": [
			{
				"days": "W",
				"hours": "02:00  PM - 03:50  PM"
			}
		],
		"Campus": "UT Chattanooga"
	},
	{
		"Title": "Ecology Laboratory",
		"Subject": "BIOL",
		"Level": "3070",
		"Hours": "1",
		"CRN": "40586",
		"Meeting": [
			{
				"days": "F",
				"hours": "02:00  PM - 03:50  PM"
			}
		],
		"Campus": "UT Chattanooga"
	},
	{
		"Title": "Genetics",
		"Subject": "BIOL",
		"Level": "3250",
		"Hours": "3",
		"CRN": "40587",
		"Meeting": [
			{
				"days": "",
				"hours": " - "
			}
		],
		"Campus": "UT Chattanooga"
	},
	{
		"Title": "Genetics",
		"Subject": "BIOL",
		"Level": "3250",
		"Hours": "3",
		"CRN": "41713",
		"Meeting": [
			{
				"days": "TT",
				"hours": "09:25  AM - 10:40  AM"
			}
		],
		"Campus": "UT Chattanooga"
	},
	{
		"Title": "Genetics Laboratory",
		"Subject": "BIOL",
		"Level": "3260",
		"Hours": "1",
		"CRN": "40631",
		"Meeting": [
			{
				"days": "T",
				"hours": "01:40  PM - 04:30  PM"
			}
		],
		"Campus": "UT Chattanooga"
	},
	{
		"Title": "Evolution",
		"Subject": "BIOL",
		"Level": "3350",
		"Hours": "3",
		"CRN": "40797",
		"Meeting": [
			{
				"days": "MWF",
				"hours": "11:00  AM - 11:50  AM"
			}
		],
		"Campus": "UT Chattanooga"
	},
	{
		"Title": "Evolution",
		"Subject": "BIOL",
		"Level": "3350",
		"Hours": "3",
		"CRN": "42075",
		"Meeting": [
			{
				"days": "",
				"hours": " - "
			}
		],
		"Campus": "UT Chattanooga"
	},
	{
		"Title": "Entomology",
		"Subject": "BIOL",
		"Level": "4070",
		"Hours": "4",
		"CRN": "40744",
		"Meeting": [
			{
				"days": "TT",
				"hours": "09:25  AM - 10:40  AM"
			}
		],
		"Campus": "UT Chattanooga"
	},
	{
		"Title": "Entomology Laboratory",
		"Subject": "BIOL",
		"Level": "4070L",
		"Hours": "0",
		"CRN": "40745",
		"Meeting": [
			{
				"days": "T",
				"hours": "12:15  PM - 03:05  PM"
			}
		],
		"Campus": "UT Chattanooga"
	},
	{
		"Title": "Herpetology",
		"Subject": "BIOL",
		"Level": "4090",
		"Hours": "4",
		"CRN": "43226",
		"Meeting": [
			{
				"days": "",
				"hours": " - "
			}
		],
		"Campus": "UT Chattanooga"
	},
	{
		"Title": "Herpetology Laboratory",
		"Subject": "BIOL",
		"Level": "4090L",
		"Hours": "0",
		"CRN": "43227",
		"Meeting": [
			{
				"days": "",
				"hours": " - "
			}
		],
		"Campus": "UT Chattanooga"
	},
	{
		"Title": "Mammalogy",
		"Subject": "BIOL",
		"Level": "4140",
		"Hours": "4",
		"CRN": "43228",
		"Meeting": [
			{
				"days": "TT",
				"hours": "09:25  AM - 10:40  AM"
			}
		],
		"Campus": "UT Chattanooga"
	},
	{
		"Title": "Mammology Laboratory",
		"Subject": "BIOL",
		"Level": "4140L",
		"Hours": "0",
		"CRN": "43230",
		"Meeting": [
			{
				"days": "T",
				"hours": "01:40  PM - 04:30  PM"
			}
		],
		"Campus": "UT Chattanooga"
	},
	{
		"Title": "Plant Morphology",
		"Subject": "BIOL",
		"Level": "4180",
		"Hours": "4",
		"CRN": "40866",
		"Meeting": [
			{
				"days": "MWF",
				"hours": "08:00  AM - 08:50  AM"
			}
		],
		"Campus": "UT Chattanooga"
	},
	{
		"Title": "Plant Morphology Laboratory",
		"Subject": "BIOL",
		"Level": "4180L",
		"Hours": "0",
		"CRN": "40867",
		"Meeting": [
			{
				"days": "M",
				"hours": "01:00  PM - 03:50  PM"
			}
		],
		"Campus": "UT Chattanooga"
	},
	{
		"Title": "Introductory Animal Physiology",
		"Subject": "BIOL",
		"Level": "4210",
		"Hours": "4",
		"CRN": "42082",
		"Meeting": [
			{
				"days": "MWF",
				"hours": "10:00  AM - 10:50  AM"
			}
		],
		"Campus": "UT Chattanooga"
	},
	{
		"Title": "Introductory Animal Physiology Laboratory",
		"Subject": "BIOL",
		"Level": "4210L",
		"Hours": "0",
		"CRN": "42083",
		"Meeting": [
			{
				"days": "M",
				"hours": "02:00  PM - 04:50  PM"
			}
		],
		"Campus": "UT Chattanooga"
	},
	{
		"Title": "Principles of Microbiology",
		"Subject": "BIOL",
		"Level": "4220",
		"Hours": "4",
		"CRN": "40740",
		"Meeting": [
			{
				"days": "TT",
				"hours": "08:00  AM - 09:15  AM"
			}
		],
		"Campus": "UT Chattanooga"
	},
	{
		"Title": "Principles of Microbiology Laboratory",
		"Subject": "BIOL",
		"Level": "4220L",
		"Hours": "0",
		"CRN": "40741",
		"Meeting": [
			{
				"days": "TT",
				"hours": "10:50  AM - 12:40  PM"
			}
		],
		"Campus": "UT Chattanooga"
	},
	{
		"Title": "Principles of Microbiology Laboratory",
		"Subject": "BIOL",
		"Level": "4220L",
		"Hours": "0",
		"CRN": "40742",
		"Meeting": [
			{
				"days": "TT",
				"hours": "01:40  PM - 03:30  PM"
			}
		],
		"Campus": "UT Chattanooga"
	},
	{
		"Title": "Cellular Biology",
		"Subject": "BIOL",
		"Level": "4280",
		"Hours": "4",
		"CRN": "40208",
		"Meeting": [
			{
				"days": "MWF",
				"hours": "11:00  AM - 11:50  AM"
			}
		],
		"Campus": "UT Chattanooga"
	},
	{
		"Title": "Cellular Biology Laboratory",
		"Subject": "BIOL",
		"Level": "4280L",
		"Hours": "0",
		"CRN": "40749",
		"Meeting": [
			{
				"days": "W",
				"hours": "01:00  PM - 03:50  PM"
			}
		],
		"Campus": "UT Chattanooga"
	},
	{
		"Title": "Urban Gardening-Organoponics",
		"Subject": "BIOL",
		"Level": "4370",
		"Hours": "1",
		"CRN": "43121",
		"Meeting": [
			{
				"days": "T",
				"hours": "02:00  PM - 04:00  PM"
			}
		],
		"Campus": "UT Chattanooga"
	},
	{
		"Title": "Toxicology",
		"Subject": "BIOL",
		"Level": "4380",
		"Hours": "4",
		"CRN": "41718",
		"Meeting": [
			{
				"days": "TT",
				"hours": "10:50  AM - 12:05  PM"
			}
		],
		"Campus": "UT Chattanooga"
	},
	{
		"Title": "Toxicology Laboratory",
		"Subject": "BIOL",
		"Level": "4380L",
		"Hours": "0",
		"CRN": "41719",
		"Meeting": [
			{
				"days": "M",
				"hours": "02:00  PM - 04:50  PM"
			}
		],
		"Campus": "UT Chattanooga"
	},
	{
		"Title": "Animal Behavior",
		"Subject": "BIOL",
		"Level": "4410",
		"Hours": "4",
		"CRN": "43231",
		"Meeting": [
			{
				"days": "",
				"hours": " - "
			}
		],
		"Campus": "UT Chattanooga"
	},
	{
		"Title": "Animal Behavior Laboratory",
		"Subject": "BIOL",
		"Level": "4410L",
		"Hours": "0",
		"CRN": "43232",
		"Meeting": [
			{
				"days": "W",
				"hours": "12:00  PM - 02:50  PM"
			}
		],
		"Campus": "UT Chattanooga"
	},
	{
		"Title": "Biogeography",
		"Subject": "BIOL",
		"Level": "4420",
		"Hours": "3",
		"CRN": "43233",
		"Meeting": [
			{
				"days": "MWF",
				"hours": "11:00  AM - 11:50  AM"
			}
		],
		"Campus": "UT Chattanooga"
	},
	{
		"Title": "Bioremediation",
		"Subject": "BIOL",
		"Level": "4430",
		"Hours": "4",
		"CRN": "43234",
		"Meeting": [
			{
				"days": "T",
				"hours": "03:05  PM - 04:35  PM"
			}
		],
		"Campus": "UT Chattanooga"
	},
	{
		"Title": "Bioremediation Laboratory",
		"Subject": "BIOL",
		"Level": "4430L",
		"Hours": "0",
		"CRN": "43235",
		"Meeting": [
			{
				"days": "T",
				"hours": "03:05  PM - 06:05  PM"
			}
		],
		"Campus": "UT Chattanooga"
	},
	{
		"Title": "Limnology and Reservoir Ecology",
		"Subject": "BIOL",
		"Level": "4520",
		"Hours": "4",
		"CRN": "40746",
		"Meeting": [
			{
				"days": "MWF",
				"hours": "10:00  AM - 10:50  AM"
			}
		],
		"Campus": "UT Chattanooga"
	},
	{
		"Title": "Limnology and Reservoir Ecology Laboratory",
		"Subject": "BIOL",
		"Level": "4520L",
		"Hours": "0",
		"CRN": "40747",
		"Meeting": [
			{
				"days": "F",
				"hours": "02:00  PM - 04:50  PM"
			}
		],
		"Campus": "UT Chattanooga"
	},
	{
		"Title": "Plant Ecology",
		"Subject": "BIOL",
		"Level": "4540",
		"Hours": "4",
		"CRN": "43236",
		"Meeting": [
			{
				"days": "",
				"hours": " - "
			}
		],
		"Campus": "UT Chattanooga"
	},
	{
		"Title": "Plant Ecology Laboratory",
		"Subject": "BIOL",
		"Level": "4540L",
		"Hours": "0",
		"CRN": "43237",
		"Meeting": [
			{
				"days": "T",
				"hours": "12:20  PM - 03:10  PM"
			}
		],
		"Campus": "UT Chattanooga"
	},
	{
		"Title": "Advanced Topics in Evolutionary Ecology",
		"Subject": "BIOL",
		"Level": "4590",
		"Hours": "3",
		"CRN": "41725",
		"Meeting": [
			{
				"days": "",
				"hours": " - "
			}
		],
		"Campus": "UTC Online"
	},
	{
		"Title": "Immunology",
		"Subject": "BIOL",
		"Level": "4720",
		"Hours": "3",
		"CRN": "43238",
		"Meeting": [
			{
				"days": "",
				"hours": " - "
			}
		],
		"Campus": "UT Chattanooga"
	},
	{
		"Title": "Dendrology",
		"Subject": "BIOL",
		"Level": "4750",
		"Hours": "4",
		"CRN": "43239",
		"Meeting": [
			{
				"days": "MWF",
				"hours": "12:00  PM - 12:50  PM"
			}
		],
		"Campus": "UT Chattanooga"
	},
	{
		"Title": "Dendrology Laboratory",
		"Subject": "BIOL",
		"Level": "4750L",
		"Hours": "0",
		"CRN": "43240",
		"Meeting": [
			{
				"days": "W",
				"hours": "02:00  PM - 03:50  PM"
			}
		],
		"Campus": "UT Chattanooga"
	},
	{
		"Title": "Departmental Thesis",
		"Subject": "BIOL",
		"Level": "4995R",
		"Hours": "1 TO 3",
		"CRN": "43752",
		"Meeting": [
			{
				"days": "",
				"hours": " - "
			}
		],
		"Campus": "UT Chattanooga"
	},
	{
		"Title": "Departmental Thesis",
		"Subject": "BIOL",
		"Level": "4995R",
		"Hours": "1 TO 3",
		"CRN": "43753",
		"Meeting": [
			{
				"days": "",
				"hours": " - "
			}
		],
		"Campus": "UT Chattanooga"
	},
	{
		"Title": "Departmental Thesis",
		"Subject": "BIOL",
		"Level": "4995R",
		"Hours": "1 TO 3",
		"CRN": "43754",
		"Meeting": [
			{
				"days": "",
				"hours": " - "
			}
		],
		"Campus": "UT Chattanooga"
	},
	{
		"Title": "Departmental Thesis",
		"Subject": "BIOL",
		"Level": "4995R",
		"Hours": "1 TO 3",
		"CRN": "43755",
		"Meeting": [
			{
				"days": "",
				"hours": " - "
			}
		],
		"Campus": "UT Chattanooga"
	},
	{
		"Title": "Departmental Thesis",
		"Subject": "BIOL",
		"Level": "4995R",
		"Hours": "1 TO 3",
		"CRN": "43756",
		"Meeting": [
			{
				"days": "",
				"hours": " - "
			}
		],
		"Campus": "UT Chattanooga"
	},
	{
		"Title": "Research",
		"Subject": "BIOL",
		"Level": "4997R",
		"Hours": "1 TO 9",
		"CRN": "42088",
		"Meeting": [
			{
				"days": "",
				"hours": " - "
			}
		],
		"Campus": "UT Chattanooga"
	},
	{
		"Title": "Research",
		"Subject": "BIOL",
		"Level": "4997R",
		"Hours": "1 TO 9",
		"CRN": "43502",
		"Meeting": [
			{
				"days": "",
				"hours": " - "
			}
		],
		"Campus": "UT Chattanooga"
	},
	{
		"Title": "Research",
		"Subject": "BIOL",
		"Level": "4997R",
		"Hours": "1 TO 9",
		"CRN": "43090",
		"Meeting": [
			{
				"days": "",
				"hours": " - "
			}
		],
		"Campus": "UT Chattanooga"
	},
	{
		"Title": "Research",
		"Subject": "BIOL",
		"Level": "4997R",
		"Hours": "1 TO 9",
		"CRN": "43503",
		"Meeting": [
			{
				"days": "",
				"hours": " - "
			}
		],
		"Campus": "UT Chattanooga"
	},
	{
		"Title": "Research",
		"Subject": "BIOL",
		"Level": "4997R",
		"Hours": "1 TO 9",
		"CRN": "43504",
		"Meeting": [
			{
				"days": "",
				"hours": " - "
			}
		],
		"Campus": "UT Chattanooga"
	},
	{
		"Title": "Research",
		"Subject": "BIOL",
		"Level": "4997R",
		"Hours": "1 TO 9",
		"CRN": "43505",
		"Meeting": [
			{
				"days": "",
				"hours": " - "
			}
		],
		"Campus": "UT Chattanooga"
	},
	{
		"Title": "Research",
		"Subject": "BIOL",
		"Level": "4997R",
		"Hours": "1 TO 9",
		"CRN": "43506",
		"Meeting": [
			{
				"days": "",
				"hours": " - "
			}
		],
		"Campus": "UT Chattanooga"
	},
	{
		"Title": "Research",
		"Subject": "BIOL",
		"Level": "4997R",
		"Hours": "1 TO 9",
		"CRN": "43507",
		"Meeting": [
			{
				"days": "",
				"hours": " - "
			}
		],
		"Campus": "UT Chattanooga"
	},
	{
		"Title": "Individual Studies",
		"Subject": "BIOL",
		"Level": "4998R",
		"Hours": "1 TO 9",
		"CRN": "42089",
		"Meeting": [
			{
				"days": "",
				"hours": " - "
			}
		],
		"Campus": "UT Chattanooga"
	},
	{
		"Title": "Individual Studies",
		"Subject": "BIOL",
		"Level": "4998R",
		"Hours": "1 TO 9",
		"CRN": "43508",
		"Meeting": [
			{
				"days": "",
				"hours": " - "
			}
		],
		"Campus": "UT Chattanooga"
	},
	{
		"Title": "Individual Studies",
		"Subject": "BIOL",
		"Level": "4998R",
		"Hours": "1 TO 9",
		"CRN": "42715",
		"Meeting": [
			{
				"days": "",
				"hours": " - "
			}
		],
		"Campus": "UT Chattanooga"
	},
	{
		"Title": "Individual Studies",
		"Subject": "BIOL",
		"Level": "4998R",
		"Hours": "1 TO 9",
		"CRN": "42091",
		"Meeting": [
			{
				"days": "",
				"hours": " - "
			}
		],
		"Campus": "UT Chattanooga"
	},
	{
		"Title": "Individual Studies",
		"Subject": "BIOL",
		"Level": "4998R",
		"Hours": "1 TO 9",
		"CRN": "42092",
		"Meeting": [
			{
				"days": "",
				"hours": " - "
			}
		],
		"Campus": "UT Chattanooga"
	},
	{
		"Title": "Individual Studies",
		"Subject": "BIOL",
		"Level": "4998R",
		"Hours": "1 TO 9",
		"CRN": "42099",
		"Meeting": [
			{
				"days": "",
				"hours": " - "
			}
		],
		"Campus": "UT Chattanooga"
	},
	{
		"Title": "Individual Studies",
		"Subject": "BIOL",
		"Level": "4998R",
		"Hours": "1 TO 9",
		"CRN": "42717",
		"Meeting": [
			{
				"days": "",
				"hours": " - "
			}
		],
		"Campus": "UT Chattanooga"
	},
	{
		"Title": "Individual Studies",
		"Subject": "BIOL",
		"Level": "4998R",
		"Hours": "1 TO 9",
		"CRN": "42723",
		"Meeting": [
			{
				"days": "",
				"hours": " - "
			}
		],
		"Campus": "UT Chattanooga"
	},
	{
		"Title": "Individual Studies",
		"Subject": "BIOL",
		"Level": "4998R",
		"Hours": "1 TO 9",
		"CRN": "42720",
		"Meeting": [
			{
				"days": "",
				"hours": " - "
			}
		],
		"Campus": "UT Chattanooga"
	},
	{
		"Title": "Individual Studies",
		"Subject": "BIOL",
		"Level": "4998R",
		"Hours": "1 TO 9",
		"CRN": "42719",
		"Meeting": [
			{
				"days": "",
				"hours": " - "
			}
		],
		"Campus": "UT Chattanooga"
	},
	{
		"Title": "Individual Studies",
		"Subject": "BIOL",
		"Level": "4998R",
		"Hours": "1 TO 9",
		"CRN": "42725",
		"Meeting": [
			{
				"days": "",
				"hours": " - "
			}
		],
		"Campus": "UT Chattanooga"
	},
	{
		"Title": "Individual Studies",
		"Subject": "BIOL",
		"Level": "4998R",
		"Hours": "1 TO 9",
		"CRN": "42094",
		"Meeting": [
			{
				"days": "",
				"hours": " - "
			}
		],
		"Campus": "UT Chattanooga"
	},
	{
		"Title": "Individual Studies",
		"Subject": "BIOL",
		"Level": "4998R",
		"Hours": "1 TO 9",
		"CRN": "43509",
		"Meeting": [
			{
				"days": "",
				"hours": " - "
			}
		],
		"Campus": "UT Chattanooga"
	},
	{
		"Title": "Individual Studies",
		"Subject": "BIOL",
		"Level": "4998R",
		"Hours": "1 TO 9",
		"CRN": "42705",
		"Meeting": [
			{
				"days": "",
				"hours": " - "
			}
		],
		"Campus": "UT Chattanooga"
	},
	{
		"Title": "Individual Studies",
		"Subject": "BIOL",
		"Level": "4998R",
		"Hours": "1 TO 9",
		"CRN": "43707",
		"Meeting": [
			{
				"days": "",
				"hours": " - "
			}
		],
		"Campus": "UT Chattanooga"
	},
	{
		"Title": "Individual Studies",
		"Subject": "BIOL",
		"Level": "4998R",
		"Hours": "1 TO 9",
		"CRN": "43885",
		"Meeting": [
			{
				"days": "",
				"hours": " - "
			}
		],
		"Campus": "UT Chattanooga"
	},
	{
		"Title": "Individual Studies",
		"Subject": "BIOL",
		"Level": "4998R",
		"Hours": "1 TO 9",
		"CRN": "43895",
		"Meeting": [
			{
				"days": "",
				"hours": " - "
			}
		],
		"Campus": "UT Chattanooga"
	},
	{
		"Title": "Meiofaunal Biodiversity Lab",
		"Subject": "BIOL",
		"Level": "4999L",
		"Hours": "0",
		"CRN": "42100",
		"Meeting": [
			{
				"days": "W",
				"hours": "01:00  PM - 03:50  PM"
			}
		],
		"Campus": "UT Chattanooga"
	},
	{
		"Title": "Ant Ecology Lab",
		"Subject": "BIOL",
		"Level": "4999L",
		"Hours": "0",
		"CRN": "43242",
		"Meeting": [
			{
				"days": "M",
				"hours": "01:00  PM - 03:50  PM"
			}
		],
		"Campus": "UT Chattanooga"
	},
	{
		"Title": "Meiofaunal Biodiversity",
		"Subject": "BIOL",
		"Level": "4999R",
		"Hours": "4",
		"CRN": "42101",
		"Meeting": [
			{
				"days": "MWF",
				"hours": "09:00  AM - 09:50  AM"
			}
		],
		"Campus": "UT Chattanooga"
	},
	{
		"Title": "Ant Ecology",
		"Subject": "BIOL",
		"Level": "4999R",
		"Hours": "4",
		"CRN": "42995",
		"Meeting": [
			{
				"days": "MWF",
				"hours": "09:00  AM - 09:50  AM"
			}
		],
		"Campus": "UT Chattanooga"
	},
	{
		"Title": "Data Science for Biologists",
		"Subject": "BIOL",
		"Level": "4999R",
		"Hours": "3",
		"CRN": "43510",
		"Meeting": [
			{
				"days": "MW",
				"hours": "06:00  PM - 07:15  PM"
			}
		],
		"Campus": "UT Chattanooga"
	},
	{
		"Title": "Current Issues in Biology: Data Science for Biologists",
		"Subject": "BIOL",
		"Level": "5010",
		"Hours": "3",
		"CRN": "43555",
		"Meeting": [
			{
				"days": "MW",
				"hours": "06:00  PM - 07:15  PM"
			}
		],
		"Campus": "UT Chattanooga"
	},
	{
		"Title": "Plant Morphology Lab",
		"Subject": "BIOL",
		"Level": "5400L",
		"Hours": "0",
		"CRN": "42102",
		"Meeting": [
			{
				"days": "M",
				"hours": "01:00  PM - 03:50  PM"
			}
		],
		"Campus": "UT Chattanooga"
	},
	{
		"Title": "Dendrology Lab",
		"Subject": "BIOL",
		"Level": "5400L",
		"Hours": "0",
		"CRN": "41898",
		"Meeting": [
			{
				"days": "W",
				"hours": "02:00  PM - 03:50  PM"
			}
		],
		"Campus": "UT Chattanooga"
	},
	{
		"Title": "Meiofaunal Biodiversity Lab",
		"Subject": "BIOL",
		"Level": "5400L",
		"Hours": "0",
		"CRN": "43249",
		"Meeting": [
			{
				"days": "W",
				"hours": "01:00  PM - 03:50  PM"
			}
		],
		"Campus": "UT Chattanooga"
	},
	{
		"Title": "Advanced Topics in Organismic Biology",
		"Subject": "BIOL",
		"Level": "5400R",
		"Hours": "4",
		"CRN": "42105",
		"Meeting": [
			{
				"days": "MWF",
				"hours": "08:00  AM - 08:50  AM"
			}
		],
		"Campus": "UT Chattanooga"
	},
	{
		"Title": "Dendrology",
		"Subject": "BIOL",
		"Level": "5400R",
		"Hours": "4",
		"CRN": "42729",
		"Meeting": [
			{
				"days": "MWF",
				"hours": "12:00  PM - 12:50  PM"
			}
		],
		"Campus": "UT Chattanooga"
	},
	{
		"Title": "Meiofaunal Biodiversity",
		"Subject": "BIOL",
		"Level": "5400R",
		"Hours": "4",
		"CRN": "42104",
		"Meeting": [
			{
				"days": "MWF",
				"hours": "09:00  AM - 09:50  AM"
			}
		],
		"Campus": "UT Chattanooga"
	},
	{
		"Title": "Individual Studies",
		"Subject": "BIOL",
		"Level": "5997R",
		"Hours": "1 TO 9",
		"CRN": "43716",
		"Meeting": [
			{
				"days": "",
				"hours": " - "
			}
		],
		"Campus": "UT Chattanooga"
	}
]