[
	{
		"Title": "Concepts in Engineering Management",
		"Subject": "ENGM",
		"Level": "5500",
		"Hours": "3",
		"CRN": "40814",
		"Meeting": [
			{
				"days": "",
				"hours": " - "
			}
		],
		"Campus": "UTC Online"
	},
	{
		"Title": "Concepts in Engineering Management",
		"Subject": "ENGM",
		"Level": "5500",
		"Hours": "3",
		"CRN": "40398",
		"Meeting": [
			{
				"days": "M",
				"hours": "05:30  PM - 08:00  PM"
			}
		],
		"Campus": "UT Chattanooga"
	},
	{
		"Title": "Advanced Quality Control",
		"Subject": "ENGM",
		"Level": "5570",
		"Hours": "3",
		"CRN": "43294",
		"Meeting": [
			{
				"days": "",
				"hours": " - "
			}
		],
		"Campus": "UTC Online"
	},
	{
		"Title": "Advanced Engineering Economy",
		"Subject": "ENGM",
		"Level": "5580",
		"Hours": "3",
		"CRN": "40818",
		"Meeting": [
			{
				"days": "",
				"hours": " - "
			}
		],
		"Campus": "UTC Online"
	},
	{
		"Title": "Advanced Engineering Economy",
		"Subject": "ENGM",
		"Level": "5580",
		"Hours": "3",
		"CRN": "40399",
		"Meeting": [
			{
				"days": "T",
				"hours": "05:30  PM - 08:00  PM"
			}
		],
		"Campus": "UT Chattanooga"
	},
	{
		"Title": "Sustainability and LEED",
		"Subject": "ENGM",
		"Level": "5600",
		"Hours": "3",
		"CRN": "43295",
		"Meeting": [
			{
				"days": "",
				"hours": " - "
			}
		],
		"Campus": "UTC Online"
	},
	{
		"Title": "Sustainability and LEED",
		"Subject": "ENGM",
		"Level": "5600",
		"Hours": "3",
		"CRN": "43292",
		"Meeting": [
			{
				"days": "TT",
				"hours": "11:00  AM - 12:15  PM"
			}
		],
		"Campus": "UT Chattanooga"
	},
	{
		"Title": "Advanced Operations and Constructability",
		"Subject": "ENGM",
		"Level": "5630",
		"Hours": "3",
		"CRN": "43296",
		"Meeting": [
			{
				"days": "",
				"hours": " - "
			}
		],
		"Campus": "UTC Online"
	},
	{
		"Title": "Advanced Operations and Constructability",
		"Subject": "ENGM",
		"Level": "5630",
		"Hours": "3",
		"CRN": "43293",
		"Meeting": [
			{
				"days": "T",
				"hours": "05:30  PM - 08:00  PM"
			}
		],
		"Campus": "UT Chattanooga"
	},
	{
		"Title": "Product Development for Innovation",
		"Subject": "ENGM",
		"Level": "5800",
		"Hours": "3",
		"CRN": "43647",
		"Meeting": [
			{
				"days": "",
				"hours": " - "
			}
		],
		"Campus": "UTC Online"
	},
	{
		"Title": "Product Development for Innovation",
		"Subject": "ENGM",
		"Level": "5800",
		"Hours": "3",
		"CRN": "43648",
		"Meeting": [
			{
				"days": "MW",
				"hours": "12:00  PM - 01:15  PM"
			}
		],
		"Campus": "UT Chattanooga"
	},
	{
		"Title": " Graduate Internship in Engineering",
		"Subject": "ENGM",
		"Level": "5920R",
		"Hours": "1",
		"CRN": "42288",
		"Meeting": [
			{
				"days": "",
				"hours": " - "
			}
		],
		"Campus": "UTC Online"
	},
	{
		"Title": "Capstone Project",
		"Subject": "ENGM",
		"Level": "5960R",
		"Hours": "1 TO 3",
		"CRN": "41388",
		"Meeting": [
			{
				"days": "",
				"hours": " - "
			}
		],
		"Campus": "UTC Online"
	},
	{
		"Title": "Thesis",
		"Subject": "ENGM",
		"Level": "5999R",
		"Hours": "1 TO 6",
		"CRN": "44030",
		"Meeting": [
			{
				"days": "",
				"hours": " - "
			}
		],
		"Campus": "UT Chattanooga"
	}
]