[
	{
		"Title": "Small Business Finance",
		"Subject": "FIN",
		"Level": "3000",
		"Hours": "3",
		"CRN": "41575",
		"Meeting": [
			{
				"days": "",
				"hours": " - "
			}
		],
		"Campus": "UTC Online"
	},
	{
		"Title": "Small Business Finance",
		"Subject": "FIN",
		"Level": "3000",
		"Hours": "3",
		"CRN": "42982",
		"Meeting": [
			{
				"days": "",
				"hours": " - "
			}
		],
		"Campus": "UTC Online"
	},
	{
		"Title": "Essentials of Managerial Finance",
		"Subject": "FIN",
		"Level": "3020",
		"Hours": "3",
		"CRN": "40315",
		"Meeting": [
			{
				"days": "",
				"hours": " - "
			}
		],
		"Campus": "UT Chattanooga"
	},
	{
		"Title": "Essentials of Managerial Finance",
		"Subject": "FIN",
		"Level": "3020",
		"Hours": "3",
		"CRN": "41573",
		"Meeting": [
			{
				"days": "W",
				"hours": "05:30  PM - 08:00  PM"
			}
		],
		"Campus": "UT Chattanooga"
	},
	{
		"Title": "Essentials of Managerial Finance",
		"Subject": "FIN",
		"Level": "3020",
		"Hours": "3",
		"CRN": "41901",
		"Meeting": [
			{
				"days": "",
				"hours": " - "
			}
		],
		"Campus": "UT Chattanooga"
	},
	{
		"Title": "Essentials of Managerial Finance",
		"Subject": "FIN",
		"Level": "3020",
		"Hours": "3",
		"CRN": "41574",
		"Meeting": [
			{
				"days": "",
				"hours": " - "
			}
		],
		"Campus": "UT Chattanooga"
	},
	{
		"Title": "Essentials of Managerial Finance",
		"Subject": "FIN",
		"Level": "3020",
		"Hours": "3",
		"CRN": "40607",
		"Meeting": [
			{
				"days": "",
				"hours": " - "
			}
		],
		"Campus": "UT Chattanooga"
	},
	{
		"Title": "Essentials of Managerial Finance",
		"Subject": "FIN",
		"Level": "3020",
		"Hours": "3",
		"CRN": "43332",
		"Meeting": [
			{
				"days": "",
				"hours": " - "
			}
		],
		"Campus": "UT Chattanooga"
	},
	{
		"Title": "Financial Institutions",
		"Subject": "FIN",
		"Level": "3180",
		"Hours": "3",
		"CRN": "40316",
		"Meeting": [
			{
				"days": "",
				"hours": " - "
			}
		],
		"Campus": "UT Chattanooga"
	},
	{
		"Title": "Intermediate Financial Management",
		"Subject": "FIN",
		"Level": "3200",
		"Hours": "3",
		"CRN": "43633",
		"Meeting": [
			{
				"days": "",
				"hours": " - "
			}
		],
		"Campus": "UT Chattanooga"
	},
	{
		"Title": "Investments I",
		"Subject": "FIN",
		"Level": "3210",
		"Hours": "3",
		"CRN": "43334",
		"Meeting": [
			{
				"days": "",
				"hours": " - "
			}
		],
		"Campus": "UTC Online"
	},
	{
		"Title": "Real Estate Fundamentals",
		"Subject": "FIN",
		"Level": "3710",
		"Hours": "3",
		"CRN": "41126",
		"Meeting": [
			{
				"days": "W",
				"hours": "05:30  PM - 08:00  PM"
			}
		],
		"Campus": "UT Chattanooga"
	},
	{
		"Title": "SMILE Fund Seminar",
		"Subject": "FIN",
		"Level": "3800R",
		"Hours": "1",
		"CRN": "42673",
		"Meeting": [
			{
				"days": "",
				"hours": " - "
			}
		],
		"Campus": "UT Chattanooga"
	},
	{
		"Title": "Experiential Learning: Academic Internship Program",
		"Subject": "FIN",
		"Level": "3900R",
		"Hours": "1 TO 3",
		"CRN": "42551",
		"Meeting": [
			{
				"days": "",
				"hours": " - "
			}
		],
		"Campus": "UT Chattanooga"
	},
	{
		"Title": "Financial Statement Analysis",
		"Subject": "FIN",
		"Level": "4030",
		"Hours": "3",
		"CRN": "40908",
		"Meeting": [
			{
				"days": "T",
				"hours": "05:30  PM - 08:00  PM"
			}
		],
		"Campus": "UT Chattanooga"
	},
	{
		"Title": "International Finance",
		"Subject": "FIN",
		"Level": "4120",
		"Hours": "3",
		"CRN": "41446",
		"Meeting": [
			{
				"days": "TT",
				"hours": "09:25  AM - 10:40  AM"
			}
		],
		"Campus": "UT Chattanooga"
	},
	{
		"Title": "Investments II",
		"Subject": "FIN",
		"Level": "4210",
		"Hours": "3",
		"CRN": "40319",
		"Meeting": [
			{
				"days": "",
				"hours": " - "
			}
		],
		"Campus": "UT Chattanooga"
	},
	{
		"Title": "Financial Management",
		"Subject": "FIN",
		"Level": "4230",
		"Hours": "3",
		"CRN": "43799",
		"Meeting": [
			{
				"days": "",
				"hours": " - "
			}
		],
		"Campus": "UT Chattanooga"
	},
	{
		"Title": "Seminar in Portfolio Management",
		"Subject": "FIN",
		"Level": "4880",
		"Hours": "3",
		"CRN": "41206",
		"Meeting": [
			{
				"days": "TT",
				"hours": "10:50  AM - 12:05  PM"
			}
		],
		"Campus": "UT Chattanooga"
	},
	{
		"Title": "Departmental Thesis",
		"Subject": "FIN",
		"Level": "4995R",
		"Hours": "1 TO 3",
		"CRN": "43813",
		"Meeting": [
			{
				"days": "",
				"hours": " - "
			}
		],
		"Campus": "UT Chattanooga"
	},
	{
		"Title": "Financial Institutions and Markets",
		"Subject": "FIN",
		"Level": "5181",
		"Hours": "3",
		"CRN": "43335",
		"Meeting": [
			{
				"days": "",
				"hours": " - "
			}
		],
		"Campus": "UTC Online"
	},
	{
		"Title": "Financial Management",
		"Subject": "FIN",
		"Level": "5820",
		"Hours": "3",
		"CRN": "43336",
		"Meeting": [
			{
				"days": "",
				"hours": " - "
			}
		],
		"Campus": "UTC Online"
	},
	{
		"Title": "Individual Studies",
		"Subject": "FIN",
		"Level": "5997R",
		"Hours": "3",
		"CRN": "42920",
		"Meeting": [
			{
				"days": "",
				"hours": " - "
			}
		],
		"Campus": "UT Chattanooga"
	}
]