[
	{
		"Title": "Introduction to Two- and Three-Dimensional Modeling",
		"Subject": "ENME",
		"Level": "1011",
		"Hours": "1",
		"CRN": "41367",
		"Meeting": [
			{
				"days": "MW",
				"hours": "08:00  AM - 09:15  AM"
			}
		],
		"Campus": "UT Chattanooga"
	},
	{
		"Title": "Introduction to Two- and Three-Dimensional Modeling",
		"Subject": "ENME",
		"Level": "1011",
		"Hours": "1",
		"CRN": "41368",
		"Meeting": [
			{
				"days": "TT",
				"hours": "08:00  AM - 09:15  AM"
			}
		],
		"Campus": "UT Chattanooga"
	},
	{
		"Title": "Basic Engineering Science",
		"Subject": "ENME",
		"Level": "1030",
		"Hours": "3",
		"CRN": "41007",
		"Meeting": [
			{
				"days": "MWF",
				"hours": "09:00  AM - 09:50  AM"
			}
		],
		"Campus": "UT Chattanooga"
	},
	{
		"Title": "Basic Engineering Science",
		"Subject": "ENME",
		"Level": "1030",
		"Hours": "3",
		"CRN": "41191",
		"Meeting": [
			{
				"days": "TT",
				"hours": "09:25  AM - 10:40  AM"
			}
		],
		"Campus": "UT Chattanooga"
	},
	{
		"Title": "Basic Engineering Science",
		"Subject": "ENME",
		"Level": "1030",
		"Hours": "3",
		"CRN": "43519",
		"Meeting": [
			{
				"days": "MWF",
				"hours": "11:00  AM - 11:50  AM"
			}
		],
		"Campus": "UT Chattanooga"
	},
	{
		"Title": "Freshman Engineering Laboratory",
		"Subject": "ENME",
		"Level": "1030L",
		"Hours": "1",
		"CRN": "41009",
		"Meeting": [
			{
				"days": "W",
				"hours": "12:10  PM - 03:00  PM"
			},
			{
				"days": "W",
				"hours": "12:10  PM - 03:00  PM"
			}
		],
		"Campus": "UT Chattanooga"
	},
	{
		"Title": "Freshman Engineering Laboratory",
		"Subject": "ENME",
		"Level": "1030L",
		"Hours": "1",
		"CRN": "41030",
		"Meeting": [
			{
				"days": "T",
				"hours": "12:10  PM - 03:00  PM"
			},
			{
				"days": "T",
				"hours": "12:10  PM - 03:00  PM"
			}
		],
		"Campus": "UT Chattanooga"
	},
	{
		"Title": "Freshman Engineering Laboratory",
		"Subject": "ENME",
		"Level": "1030L",
		"Hours": "1",
		"CRN": "41010",
		"Meeting": [
			{
				"days": "T",
				"hours": "12:10  PM - 03:00  PM"
			},
			{
				"days": "T",
				"hours": "12:10  PM - 03:00  PM"
			}
		],
		"Campus": "UT Chattanooga"
	},
	{
		"Title": "Freshman Engineering Laboratory",
		"Subject": "ENME",
		"Level": "1030L",
		"Hours": "1",
		"CRN": "41012",
		"Meeting": [
			{
				"days": "T",
				"hours": "05:30  PM - 08:10  PM"
			},
			{
				"days": "T",
				"hours": "05:30  PM - 08:10  PM"
			}
		],
		"Campus": "UT Chattanooga"
	},
	{
		"Title": "Introduction to Engineering Design",
		"Subject": "ENME",
		"Level": "1850",
		"Hours": "2",
		"CRN": "41369",
		"Meeting": [
			{
				"days": "MW",
				"hours": "08:00  AM - 09:50  AM"
			}
		],
		"Campus": "UT Chattanooga"
	},
	{
		"Title": "Introduction to Engineering Design",
		"Subject": "ENME",
		"Level": "1850",
		"Hours": "2",
		"CRN": "43297",
		"Meeting": [
			{
				"days": "MW",
				"hours": "02:00  PM - 03:50  PM"
			}
		],
		"Campus": "UT Chattanooga"
	},
	{
		"Title": "Introduction to Engineering Computations",
		"Subject": "ENME",
		"Level": "2240",
		"Hours": "3",
		"CRN": "41014",
		"Meeting": [
			{
				"days": "TT",
				"hours": "12:15  PM - 01:30  PM"
			}
		],
		"Campus": "UT Chattanooga"
	},
	{
		"Title": "Dynamics",
		"Subject": "ENME",
		"Level": "2480",
		"Hours": "3",
		"CRN": "41017",
		"Meeting": [
			{
				"days": "TT",
				"hours": "08:00  AM - 09:15  AM"
			}
		],
		"Campus": "UT Chattanooga"
	},
	{
		"Title": "Thermodynamics",
		"Subject": "ENME",
		"Level": "3030",
		"Hours": "3",
		"CRN": "41374",
		"Meeting": [
			{
				"days": "MWF",
				"hours": "08:00  AM - 08:50  AM"
			}
		],
		"Campus": "UT Chattanooga"
	},
	{
		"Title": "Mechanical Engineering Thermodynamics",
		"Subject": "ENME",
		"Level": "3040",
		"Hours": "3",
		"CRN": "40819",
		"Meeting": [
			{
				"days": "TT",
				"hours": "10:50  AM - 12:05  PM"
			}
		],
		"Campus": "UT Chattanooga"
	},
	{
		"Title": "Fluid Mechanics",
		"Subject": "ENME",
		"Level": "3070",
		"Hours": "3",
		"CRN": "41019",
		"Meeting": [
			{
				"days": "MWF",
				"hours": "11:00  AM - 11:50  AM"
			}
		],
		"Campus": "UT Chattanooga"
	},
	{
		"Title": "Fluid Mechanics",
		"Subject": "ENME",
		"Level": "3070",
		"Hours": "3",
		"CRN": "41375",
		"Meeting": [
			{
				"days": "MWF",
				"hours": "11:00  AM - 11:50  AM"
			}
		],
		"Campus": "UT Chattanooga"
	},
	{
		"Title": "Fluid Mechanics Laboratory",
		"Subject": "ENME",
		"Level": "3070L",
		"Hours": "1",
		"CRN": "41020",
		"Meeting": [
			{
				"days": "M",
				"hours": "02:00  PM - 04:50  PM"
			}
		],
		"Campus": "UT Chattanooga"
	},
	{
		"Title": "Fluid Mechanics Laboratory",
		"Subject": "ENME",
		"Level": "3070L",
		"Hours": "1",
		"CRN": "41021",
		"Meeting": [
			{
				"days": "T",
				"hours": "02:00  PM - 04:50  PM"
			}
		],
		"Campus": "UT Chattanooga"
	},
	{
		"Title": "Fluid Mechanics Laboratory",
		"Subject": "ENME",
		"Level": "3070L",
		"Hours": "1",
		"CRN": "41750",
		"Meeting": [
			{
				"days": "T",
				"hours": "02:00  PM - 04:50  PM"
			}
		],
		"Campus": "UT Chattanooga"
	},
	{
		"Title": "Heat and Mass Transfer",
		"Subject": "ENME",
		"Level": "3090",
		"Hours": "3",
		"CRN": "41751",
		"Meeting": [
			{
				"days": "TT",
				"hours": "01:40  PM - 02:55  PM"
			}
		],
		"Campus": "UT Chattanooga"
	},
	{
		"Title": "Control Systems",
		"Subject": "ENME",
		"Level": "3280",
		"Hours": "3",
		"CRN": "43299",
		"Meeting": [
			{
				"days": "TT",
				"hours": "09:25  AM - 10:40  AM"
			}
		],
		"Campus": "UT Chattanooga"
	},
	{
		"Title": "Engineering Materials Science",
		"Subject": "ENME",
		"Level": "3400",
		"Hours": "3",
		"CRN": "41022",
		"Meeting": [
			{
				"days": "TT",
				"hours": "08:00  AM - 09:15  AM"
			}
		],
		"Campus": "UT Chattanooga"
	},
	{
		"Title": "Mechanical Engineering Experimentation ",
		"Subject": "ENME",
		"Level": "3470",
		"Hours": "2",
		"CRN": "40376",
		"Meeting": [
			{
				"days": "MW",
				"hours": "09:00  AM - 09:50  AM"
			}
		],
		"Campus": "UT Chattanooga"
	},
	{
		"Title": "Kinematics and Dynamics of Machinery I",
		"Subject": "ENME",
		"Level": "3480",
		"Hours": "3",
		"CRN": "40377",
		"Meeting": [
			{
				"days": "MW",
				"hours": "05:15  PM - 06:30  PM"
			}
		],
		"Campus": "UT Chattanooga"
	},
	{
		"Title": "Manufacturing Processes",
		"Subject": "ENME",
		"Level": "3580",
		"Hours": "3",
		"CRN": "41569",
		"Meeting": [
			{
				"days": "TT",
				"hours": "05:15  PM - 06:30  PM"
			}
		],
		"Campus": "UT Chattanooga"
	},
	{
		"Title": "Interdisciplinary Design Project I",
		"Subject": "ENME",
		"Level": "3850",
		"Hours": "3",
		"CRN": "41389",
		"Meeting": [
			{
				"days": "TT",
				"hours": "03:05  PM - 04:20  PM"
			}
		],
		"Campus": "UT Chattanooga"
	},
	{
		"Title": "Advanced Fluid Dynamics",
		"Subject": "ENME",
		"Level": "4400",
		"Hours": "3",
		"CRN": "40378",
		"Meeting": [
			{
				"days": "TT",
				"hours": "09:25  AM - 10:40  AM"
			}
		],
		"Campus": "UT Chattanooga"
	},
	{
		"Title": "Machine Design",
		"Subject": "ENME",
		"Level": "4420",
		"Hours": "3",
		"CRN": "40379",
		"Meeting": [
			{
				"days": "TT",
				"hours": "12:15  PM - 01:30  PM"
			}
		],
		"Campus": "UT Chattanooga"
	},
	{
		"Title": "Thermal Component Design",
		"Subject": "ENME",
		"Level": "4430",
		"Hours": "3",
		"CRN": "40380",
		"Meeting": [
			{
				"days": "TT",
				"hours": "01:40  PM - 02:55  PM"
			}
		],
		"Campus": "UT Chattanooga"
	},
	{
		"Title": "Mechanical Vibrations",
		"Subject": "ENME",
		"Level": "4450",
		"Hours": "3",
		"CRN": "41376",
		"Meeting": [
			{
				"days": "MW",
				"hours": "03:25  PM - 04:40  PM"
			}
		],
		"Campus": "UT Chattanooga"
	},
	{
		"Title": "Mechanical Engineering Experimentation Laboratory",
		"Subject": "ENME",
		"Level": "4470",
		"Hours": "2",
		"CRN": "40381",
		"Meeting": [
			{
				"days": "M",
				"hours": "11:00  AM - 11:50  AM"
			},
			{
				"days": "M",
				"hours": "11:00  AM - 11:50  AM"
			},
			{
				"days": "W",
				"hours": "11:00  AM - 01:50  PM"
			}
		],
		"Campus": "UT Chattanooga"
	},
	{
		"Title": "Mechanical Engineering Experimentation Laboratory",
		"Subject": "ENME",
		"Level": "4470",
		"Hours": "2",
		"CRN": "40701",
		"Meeting": [
			{
				"days": "M",
				"hours": "11:00  AM - 11:50  AM"
			},
			{
				"days": "M",
				"hours": "11:00  AM - 11:50  AM"
			},
			{
				"days": "F",
				"hours": "11:00  AM - 01:50  PM"
			}
		],
		"Campus": "UT Chattanooga"
	},
	{
		"Title": "Mechanical Engineering Design Project",
		"Subject": "ENME",
		"Level": "4500",
		"Hours": "3",
		"CRN": "40614",
		"Meeting": [
			{
				"days": "MW",
				"hours": "02:00  PM - 03:15  PM"
			}
		],
		"Campus": "UT Chattanooga"
	},
	{
		"Title": "Mechanical Engineering Design Project",
		"Subject": "ENME",
		"Level": "4500",
		"Hours": "3",
		"CRN": "44040",
		"Meeting": [
			{
				"days": "",
				"hours": " - "
			}
		],
		"Campus": "UT Chattanooga"
	},
	{
		"Title": "Interdisciplinary Design Project II",
		"Subject": "ENME",
		"Level": "4850",
		"Hours": "3",
		"CRN": "41393",
		"Meeting": [
			{
				"days": "TT",
				"hours": "10:50  AM - 12:05  PM"
			}
		],
		"Campus": "UT Chattanooga"
	},
	{
		"Title": "Interdisciplinary Design Project II",
		"Subject": "ENME",
		"Level": "4850",
		"Hours": "3",
		"CRN": "43992",
		"Meeting": [
			{
				"days": "",
				"hours": " - "
			}
		],
		"Campus": "UT Chattanooga"
	},
	{
		"Title": "Introduction to Computational Fluid Dynamics",
		"Subject": "ENME",
		"Level": "4999R",
		"Hours": "3",
		"CRN": "42739",
		"Meeting": [
			{
				"days": "MWF",
				"hours": "08:00  AM - 08:50  AM"
			}
		],
		"Campus": "UT Chattanooga"
	},
	{
		"Title": "Additive Manufacturing",
		"Subject": "ENME",
		"Level": "4999R",
		"Hours": "3",
		"CRN": "43544",
		"Meeting": [
			{
				"days": "TT",
				"hours": "03:05  PM - 04:20  PM"
			}
		],
		"Campus": "UT Chattanooga"
	},
	{
		"Title": "Introduction to Computational Fluid Dynamics",
		"Subject": "ENME",
		"Level": "5010",
		"Hours": "3",
		"CRN": "42740",
		"Meeting": [
			{
				"days": "MWF",
				"hours": "08:00  AM - 08:50  AM"
			}
		],
		"Campus": "UT Chattanooga"
	},
	{
		"Title": "Advanced Thermodynamics",
		"Subject": "ENME",
		"Level": "5320",
		"Hours": "4",
		"CRN": "43520",
		"Meeting": [
			{
				"days": "MW",
				"hours": "03:25  PM - 05:05  PM"
			}
		],
		"Campus": "UT Chattanooga"
	},
	{
		"Title": " Advanced Thermodynamics",
		"Subject": "ENME",
		"Level": "5320",
		"Hours": "4",
		"CRN": "43629",
		"Meeting": [
			{
				"days": "",
				"hours": " - "
			}
		],
		"Campus": "UTC Online"
	},
	{
		"Title": " Heat Conduction and Radiation",
		"Subject": "ENME",
		"Level": "5380",
		"Hours": "4",
		"CRN": "41397",
		"Meeting": [
			{
				"days": "W",
				"hours": "05:15  PM - 08:45  PM"
			}
		],
		"Campus": "UT Chattanooga"
	},
	{
		"Title": " Engineering Project",
		"Subject": "ENME",
		"Level": "5900R",
		"Hours": "3",
		"CRN": "42036",
		"Meeting": [
			{
				"days": "",
				"hours": " - "
			}
		],
		"Campus": "UT Chattanooga"
	},
	{
		"Title": " Engineering Project",
		"Subject": "ENME",
		"Level": "5900R",
		"Hours": "3",
		"CRN": "43971",
		"Meeting": [
			{
				"days": "",
				"hours": " - "
			}
		],
		"Campus": "UT Chattanooga"
	},
	{
		"Title": "Special Topics in Engineering: Additive Manufacturing",
		"Subject": "ENME",
		"Level": "5910R",
		"Hours": "3",
		"CRN": "43521",
		"Meeting": [
			{
				"days": "TT",
				"hours": "03:05  PM - 04:20  PM"
			}
		],
		"Campus": "UT Chattanooga"
	},
	{
		"Title": "Advanced Fluid Dynamics",
		"Subject": "ENME",
		"Level": "5910R",
		"Hours": "3",
		"CRN": "43816",
		"Meeting": [
			{
				"days": "TT",
				"hours": "09:25  AM - 10:40  AM"
			}
		],
		"Campus": "UT Chattanooga"
	},
	{
		"Title": "Special Topics in Engineering: Finite Element Methods",
		"Subject": "ENME",
		"Level": "5910R",
		"Hours": "3",
		"CRN": "43991",
		"Meeting": [
			{
				"days": "TT",
				"hours": "04:00  PM - 05:15  PM"
			}
		],
		"Campus": "UT Chattanooga"
	},
	{
		"Title": " Thesis",
		"Subject": "ENME",
		"Level": "5999R",
		"Hours": "1 TO 6",
		"CRN": "42063",
		"Meeting": [
			{
				"days": "",
				"hours": " - "
			}
		],
		"Campus": "UT Chattanooga"
	},
	{
		"Title": " Thesis",
		"Subject": "ENME",
		"Level": "5999R",
		"Hours": "1 TO 6",
		"CRN": "43105",
		"Meeting": [
			{
				"days": "",
				"hours": " - "
			}
		],
		"Campus": "UT Chattanooga"
	},
	{
		"Title": " Thesis",
		"Subject": "ENME",
		"Level": "5999R",
		"Hours": "1 TO 6",
		"CRN": "43127",
		"Meeting": [
			{
				"days": "",
				"hours": " - "
			}
		],
		"Campus": "UT Chattanooga"
	},
	{
		"Title": " Thesis",
		"Subject": "ENME",
		"Level": "5999R",
		"Hours": "1 TO 6",
		"CRN": "41399",
		"Meeting": [
			{
				"days": "",
				"hours": " - "
			}
		],
		"Campus": "UT Chattanooga"
	},
	{
		"Title": " Thesis",
		"Subject": "ENME",
		"Level": "5999R",
		"Hours": "1 TO 6",
		"CRN": "43199",
		"Meeting": [
			{
				"days": "",
				"hours": " - "
			}
		],
		"Campus": "UT Chattanooga"
	},
	{
		"Title": " Thesis",
		"Subject": "ENME",
		"Level": "5999R",
		"Hours": "1 TO 6",
		"CRN": "43893",
		"Meeting": [
			{
				"days": "",
				"hours": " - "
			}
		],
		"Campus": "UT Chattanooga"
	},
	{
		"Title": " Thesis",
		"Subject": "ENME",
		"Level": "5999R",
		"Hours": "1 TO 6",
		"CRN": "43998",
		"Meeting": [
			{
				"days": "",
				"hours": " - "
			}
		],
		"Campus": "UT Chattanooga"
	},
	{
		"Title": " Thesis",
		"Subject": "ENME",
		"Level": "5999R",
		"Hours": "1 TO 6",
		"CRN": "41400",
		"Meeting": [
			{
				"days": "",
				"hours": " - "
			}
		],
		"Campus": "UT Chattanooga"
	}
]