[
	{
		"Title": "Geology of the National Parks",
		"Subject": "GEOL",
		"Level": "1025",
		"Hours": "3",
		"CRN": "42166",
		"Meeting": [
			{
				"days": "",
				"hours": " - "
			}
		],
		"Campus": "UT Chattanooga"
	},
	{
		"Title": "Physical Geology",
		"Subject": "GEOL",
		"Level": "1110",
		"Hours": "3",
		"CRN": "40400",
		"Meeting": [
			{
				"days": "",
				"hours": " - "
			}
		],
		"Campus": "UT Chattanooga"
	},
	{
		"Title": "Physical Geology",
		"Subject": "GEOL",
		"Level": "1110",
		"Hours": "3",
		"CRN": "41127",
		"Meeting": [
			{
				"days": "",
				"hours": " - "
			}
		],
		"Campus": "UT Chattanooga"
	},
	{
		"Title": "Physical Geology",
		"Subject": "GEOL",
		"Level": "1110",
		"Hours": "3",
		"CRN": "43917",
		"Meeting": [
			{
				"days": "",
				"hours": " - "
			}
		],
		"Campus": "UT Chattanooga"
	},
	{
		"Title": "Physical Geology",
		"Subject": "GEOL",
		"Level": "1110",
		"Hours": "3",
		"CRN": "41855",
		"Meeting": [
			{
				"days": "TT",
				"hours": "09:25  AM - 10:40  AM"
			}
		],
		"Campus": "UT Chattanooga"
	},
	{
		"Title": "Physical Geology Laboratory",
		"Subject": "GEOL",
		"Level": "1110L",
		"Hours": "1",
		"CRN": "40402",
		"Meeting": [
			{
				"days": "",
				"hours": " - "
			}
		],
		"Campus": "UT Chattanooga"
	},
	{
		"Title": "Physical Geology Laboratory",
		"Subject": "GEOL",
		"Level": "1110L",
		"Hours": "1",
		"CRN": "40403",
		"Meeting": [
			{
				"days": "",
				"hours": " - "
			}
		],
		"Campus": "UT Chattanooga"
	},
	{
		"Title": "Physical Geology Laboratory",
		"Subject": "GEOL",
		"Level": "1110L",
		"Hours": "1",
		"CRN": "40404",
		"Meeting": [
			{
				"days": "",
				"hours": " - "
			}
		],
		"Campus": "UT Chattanooga"
	},
	{
		"Title": "Physical Geology Laboratory",
		"Subject": "GEOL",
		"Level": "1110L",
		"Hours": "1",
		"CRN": "40581",
		"Meeting": [
			{
				"days": "",
				"hours": " - "
			}
		],
		"Campus": "UT Chattanooga"
	},
	{
		"Title": "Physical Geology Laboratory",
		"Subject": "GEOL",
		"Level": "1110L",
		"Hours": "1",
		"CRN": "40405",
		"Meeting": [
			{
				"days": "",
				"hours": " - "
			}
		],
		"Campus": "UT Chattanooga"
	},
	{
		"Title": "Physical Geology Laboratory",
		"Subject": "GEOL",
		"Level": "1110L",
		"Hours": "1",
		"CRN": "40406",
		"Meeting": [
			{
				"days": "",
				"hours": " - "
			}
		],
		"Campus": "UT Chattanooga"
	},
	{
		"Title": "Physical Geology Laboratory",
		"Subject": "GEOL",
		"Level": "1110L",
		"Hours": "1",
		"CRN": "40407",
		"Meeting": [
			{
				"days": "",
				"hours": " - "
			}
		],
		"Campus": "UT Chattanooga"
	},
	{
		"Title": "Physical Geology Laboratory",
		"Subject": "GEOL",
		"Level": "1110L",
		"Hours": "1",
		"CRN": "42168",
		"Meeting": [
			{
				"days": "",
				"hours": " - "
			}
		],
		"Campus": "UT Chattanooga"
	},
	{
		"Title": "Historical Geology",
		"Subject": "GEOL",
		"Level": "1120",
		"Hours": "3",
		"CRN": "40544",
		"Meeting": [
			{
				"days": "",
				"hours": " - "
			}
		],
		"Campus": "UT Chattanooga"
	},
	{
		"Title": "Historical Geology Laboratory",
		"Subject": "GEOL",
		"Level": "1120L",
		"Hours": "1",
		"CRN": "40933",
		"Meeting": [
			{
				"days": "F",
				"hours": "02:00  PM - 03:50  PM"
			},
			{
				"days": "F",
				"hours": "02:00  PM - 03:50  PM"
			}
		],
		"Campus": "UT Chattanooga"
	},
	{
		"Title": "Current Geological Perspectives of Earth",
		"Subject": "GEOL",
		"Level": "1160",
		"Hours": "3",
		"CRN": "42169",
		"Meeting": [
			{
				"days": "",
				"hours": " - "
			}
		],
		"Campus": "UT Chattanooga"
	},
	{
		"Title": "Environmental Geology",
		"Subject": "GEOL",
		"Level": "1230",
		"Hours": "4",
		"CRN": "43344",
		"Meeting": [
			{
				"days": "TT",
				"hours": "10:50  AM - 12:05  PM"
			}
		],
		"Campus": "UT Chattanooga"
	},
	{
		"Title": "Environmental Geology Laboratory",
		"Subject": "GEOL",
		"Level": "1230L",
		"Hours": "0",
		"CRN": "43345",
		"Meeting": [
			{
				"days": "T",
				"hours": "03:05  PM - 04:55  PM"
			}
		],
		"Campus": "UT Chattanooga"
	},
	{
		"Title": "Introductory Geographic Information Systems and Remote Sensing",
		"Subject": "GEOL",
		"Level": "2100",
		"Hours": "4",
		"CRN": "42552",
		"Meeting": [
			{
				"days": "",
				"hours": " - "
			}
		],
		"Campus": "UT Chattanooga"
	},
	{
		"Title": "Introductory Geographic Information Systems and Remote Sensing Laboratory",
		"Subject": "GEOL",
		"Level": "2100L",
		"Hours": "0",
		"CRN": "42553",
		"Meeting": [
			{
				"days": "W",
				"hours": "02:00  PM - 03:50  PM"
			}
		],
		"Campus": "UT Chattanooga"
	},
	{
		"Title": "Oceanography",
		"Subject": "GEOL",
		"Level": "2250",
		"Hours": "3",
		"CRN": "40408",
		"Meeting": [
			{
				"days": "",
				"hours": " - "
			}
		],
		"Campus": "UT Chattanooga"
	},
	{
		"Title": "Oceanography Laboratory",
		"Subject": "GEOL",
		"Level": "2250L",
		"Hours": "1",
		"CRN": "40409",
		"Meeting": [
			{
				"days": "",
				"hours": " - "
			}
		],
		"Campus": "UT Chattanooga"
	},
	{
		"Title": "Mineralogy",
		"Subject": "GEOL",
		"Level": "3410",
		"Hours": "4",
		"CRN": "40410",
		"Meeting": [
			{
				"days": "",
				"hours": " - "
			}
		],
		"Campus": "UT Chattanooga"
	},
	{
		"Title": "Mineralogy Laboratory",
		"Subject": "GEOL",
		"Level": "3410L",
		"Hours": "0",
		"CRN": "40411",
		"Meeting": [
			{
				"days": "M",
				"hours": "01:00  PM - 02:50  PM"
			}
		],
		"Campus": "UT Chattanooga"
	},
	{
		"Title": "Mineralogy Laboratory",
		"Subject": "GEOL",
		"Level": "3410L",
		"Hours": "0",
		"CRN": "43347",
		"Meeting": [
			{
				"days": "M",
				"hours": "03:00  PM - 04:50  PM"
			}
		],
		"Campus": "UT Chattanooga"
	},
	{
		"Title": "X-Ray Diffraction Methods",
		"Subject": "GEOL",
		"Level": "4420",
		"Hours": "1",
		"CRN": "41816",
		"Meeting": [
			{
				"days": "T",
				"hours": "12:15  PM - 01:05  PM"
			},
			{
				"days": "",
				"hours": "12:15  PM - 01:05  PM"
			}
		],
		"Campus": "UT Chattanooga"
	},
	{
		"Title": "Hydrology",
		"Subject": "GEOL",
		"Level": "4450",
		"Hours": "3",
		"CRN": "40412",
		"Meeting": [
			{
				"days": "MWF",
				"hours": "10:00  AM - 10:50  AM"
			}
		],
		"Campus": "UT Chattanooga"
	},
	{
		"Title": "Structural Geology",
		"Subject": "GEOL",
		"Level": "4510",
		"Hours": "4",
		"CRN": "43348",
		"Meeting": [
			{
				"days": "T",
				"hours": "09:25  AM - 10:40  AM"
			},
			{
				"days": "T",
				"hours": "09:25  AM - 10:40  AM"
			},
			{
				"days": "T",
				"hours": "09:25  AM - 10:40  AM"
			},
			{
				"days": "T",
				"hours": "09:25  AM - 10:40  AM"
			},
			{
				"days": "",
				"hours": " - "
			}
		],
		"Campus": "UT Chattanooga"
	},
	{
		"Title": "Structural Geology Laboratory",
		"Subject": "GEOL",
		"Level": "4510L",
		"Hours": "0",
		"CRN": "43349",
		"Meeting": [
			{
				"days": "T",
				"hours": "12:15  PM - 03:05  PM"
			},
			{
				"days": "T",
				"hours": "12:15  PM - 03:05  PM"
			},
			{
				"days": "",
				"hours": " - "
			}
		],
		"Campus": "UT Chattanooga"
	},
	{
		"Title": "Geology Seminar",
		"Subject": "GEOL",
		"Level": "4800",
		"Hours": "1",
		"CRN": "41128",
		"Meeting": [
			{
				"days": "W",
				"hours": "04:00  PM - 04:50  PM"
			}
		],
		"Campus": "UT Chattanooga"
	},
	{
		"Title": "Research",
		"Subject": "GEOL",
		"Level": "4997R",
		"Hours": "1 TO 9",
		"CRN": "43350",
		"Meeting": [
			{
				"days": "",
				"hours": " - "
			}
		],
		"Campus": "UT Chattanooga"
	},
	{
		"Title": "Individual Studies",
		"Subject": "GEOL",
		"Level": "4998R",
		"Hours": "1 TO 9",
		"CRN": "43103",
		"Meeting": [
			{
				"days": "",
				"hours": " - "
			}
		],
		"Campus": "UT Chattanooga"
	},
	{
		"Title": "Hydrology Lab",
		"Subject": "GEOL",
		"Level": "4999L",
		"Hours": "1",
		"CRN": "43353",
		"Meeting": [
			{
				"days": "W",
				"hours": "12:00  PM - 01:50  PM"
			}
		],
		"Campus": "UT Chattanooga"
	},
	{
		"Title": "Life in the Universe",
		"Subject": "GEOL",
		"Level": "4999R",
		"Hours": "3",
		"CRN": "43351",
		"Meeting": [
			{
				"days": "TT",
				"hours": "10:50  AM - 12:05  PM"
			}
		],
		"Campus": "UT Chattanooga"
	},
	{
		"Title": "Hydrology",
		"Subject": "GEOL",
		"Level": "5450",
		"Hours": "3",
		"CRN": "43354",
		"Meeting": [
			{
				"days": "MWF",
				"hours": "10:00  AM - 10:50  AM"
			}
		],
		"Campus": "UT Chattanooga"
	}
]