[
	{
		"Title": "Computers in Business",
		"Subject": "MGT",
		"Level": "1000",
		"Hours": "3",
		"CRN": "40322",
		"Meeting": [
			{
				"days": "",
				"hours": " - "
			}
		],
		"Campus": "UTC Online"
	},
	{
		"Title": "Computers in Business",
		"Subject": "MGT",
		"Level": "1000",
		"Hours": "3",
		"CRN": "41834",
		"Meeting": [
			{
				"days": "",
				"hours": " - "
			}
		],
		"Campus": "UTC Online"
	},
	{
		"Title": "Computers in Business",
		"Subject": "MGT",
		"Level": "1000",
		"Hours": "3",
		"CRN": "43400",
		"Meeting": [
			{
				"days": "",
				"hours": " - "
			}
		],
		"Campus": "UTC Online"
	},
	{
		"Title": "Computers in Business",
		"Subject": "MGT",
		"Level": "1000",
		"Hours": "3",
		"CRN": "43408",
		"Meeting": [
			{
				"days": "",
				"hours": " - "
			}
		],
		"Campus": "UTC Online"
	},
	{
		"Title": "Statistics for Business",
		"Subject": "MGT",
		"Level": "2130",
		"Hours": "3",
		"CRN": "42647",
		"Meeting": [
			{
				"days": "MWF",
				"hours": "09:00  AM - 09:50  AM"
			}
		],
		"Campus": "UT Chattanooga"
	},
	{
		"Title": "Statistics for Business",
		"Subject": "MGT",
		"Level": "2130",
		"Hours": "3",
		"CRN": "42648",
		"Meeting": [
			{
				"days": "MWF",
				"hours": "10:00  AM - 10:50  AM"
			}
		],
		"Campus": "UT Chattanooga"
	},
	{
		"Title": "Statistics for Business",
		"Subject": "MGT",
		"Level": "2130",
		"Hours": "3",
		"CRN": "42649",
		"Meeting": [
			{
				"days": "MWF",
				"hours": "01:00  PM - 01:50  PM"
			}
		],
		"Campus": "UT Chattanooga"
	},
	{
		"Title": "Statistics for Business",
		"Subject": "MGT",
		"Level": "2130",
		"Hours": "3",
		"CRN": "42650",
		"Meeting": [
			{
				"days": "",
				"hours": " - "
			}
		],
		"Campus": "UT Chattanooga"
	},
	{
		"Title": "Statistics for Business",
		"Subject": "MGT",
		"Level": "2130",
		"Hours": "3",
		"CRN": "42651",
		"Meeting": [
			{
				"days": "",
				"hours": " - "
			}
		],
		"Campus": "UT Chattanooga"
	},
	{
		"Title": "Data Modeling for Business",
		"Subject": "MGT",
		"Level": "2140",
		"Hours": "3",
		"CRN": "43391",
		"Meeting": [
			{
				"days": "TT",
				"hours": "09:25  AM - 10:40  AM"
			}
		],
		"Campus": "UT Chattanooga"
	},
	{
		"Title": "Data Modeling for Business",
		"Subject": "MGT",
		"Level": "2140",
		"Hours": "3",
		"CRN": "43392",
		"Meeting": [
			{
				"days": "TT",
				"hours": "10:50  AM - 12:05  PM"
			}
		],
		"Campus": "UT Chattanooga"
	},
	{
		"Title": "Data Modeling for Business",
		"Subject": "MGT",
		"Level": "2140",
		"Hours": "3",
		"CRN": "43393",
		"Meeting": [
			{
				"days": "T",
				"hours": "05:30  PM - 08:00  PM"
			}
		],
		"Campus": "UT Chattanooga"
	},
	{
		"Title": "Data Modeling for Business",
		"Subject": "MGT",
		"Level": "2140",
		"Hours": "3",
		"CRN": "43409",
		"Meeting": [
			{
				"days": "",
				"hours": " - "
			}
		],
		"Campus": "UT Chattanooga"
	},
	{
		"Title": "Data Modeling for Business",
		"Subject": "MGT",
		"Level": "2140",
		"Hours": "3",
		"CRN": "43410",
		"Meeting": [
			{
				"days": "",
				"hours": " - "
			}
		],
		"Campus": "UT Chattanooga"
	},
	{
		"Title": "Data Modeling for Business",
		"Subject": "MGT",
		"Level": "2140",
		"Hours": "3",
		"CRN": "43411",
		"Meeting": [
			{
				"days": "",
				"hours": " - "
			}
		],
		"Campus": "UT Chattanooga"
	},
	{
		"Title": "Operations Management",
		"Subject": "MGT",
		"Level": "3110",
		"Hours": "3",
		"CRN": "40331",
		"Meeting": [
			{
				"days": "MWF",
				"hours": "08:00  AM - 08:50  AM"
			}
		],
		"Campus": "UT Chattanooga"
	},
	{
		"Title": "Operations Management",
		"Subject": "MGT",
		"Level": "3110",
		"Hours": "3",
		"CRN": "40332",
		"Meeting": [
			{
				"days": "MWF",
				"hours": "09:00  AM - 09:50  AM"
			}
		],
		"Campus": "UT Chattanooga"
	},
	{
		"Title": "Operations Management",
		"Subject": "MGT",
		"Level": "3110",
		"Hours": "3",
		"CRN": "41623",
		"Meeting": [
			{
				"days": "MWF",
				"hours": "10:00  AM - 10:50  AM"
			}
		],
		"Campus": "UT Chattanooga"
	},
	{
		"Title": "Operations Management",
		"Subject": "MGT",
		"Level": "3110",
		"Hours": "3",
		"CRN": "40938",
		"Meeting": [
			{
				"days": "MW",
				"hours": "02:00  PM - 03:15  PM"
			}
		],
		"Campus": "UT Chattanooga"
	},
	{
		"Title": "Operations Management",
		"Subject": "MGT",
		"Level": "3110",
		"Hours": "3",
		"CRN": "42300",
		"Meeting": [
			{
				"days": "",
				"hours": " - "
			}
		],
		"Campus": "UT Chattanooga"
	},
	{
		"Title": "Operations Management",
		"Subject": "MGT",
		"Level": "3110",
		"Hours": "3",
		"CRN": "42336",
		"Meeting": [
			{
				"days": "",
				"hours": " - "
			}
		],
		"Campus": "UT Chattanooga"
	},
	{
		"Title": "Management Concepts, Theory, and Practice",
		"Subject": "MGT",
		"Level": "3150",
		"Hours": "3",
		"CRN": "42964",
		"Meeting": [
			{
				"days": "TT",
				"hours": "10:50  AM - 12:05  PM"
			}
		],
		"Campus": "UT Chattanooga"
	},
	{
		"Title": "Management Concepts, Theory, and Practice",
		"Subject": "MGT",
		"Level": "3150",
		"Hours": "3",
		"CRN": "40351",
		"Meeting": [
			{
				"days": "TT",
				"hours": "09:25  AM - 10:40  AM"
			}
		],
		"Campus": "UT Chattanooga"
	},
	{
		"Title": "Management Concepts, Theory, and Practice",
		"Subject": "MGT",
		"Level": "3150",
		"Hours": "3",
		"CRN": "40352",
		"Meeting": [
			{
				"days": "",
				"hours": " - "
			}
		],
		"Campus": "UT Chattanooga"
	},
	{
		"Title": "Management Concepts, Theory, and Practice",
		"Subject": "MGT",
		"Level": "3150",
		"Hours": "3",
		"CRN": "40353",
		"Meeting": [
			{
				"days": "",
				"hours": " - "
			}
		],
		"Campus": "UT Chattanooga"
	},
	{
		"Title": "Management Concepts, Theory, and Practice",
		"Subject": "MGT",
		"Level": "3150",
		"Hours": "3",
		"CRN": "40593",
		"Meeting": [
			{
				"days": "",
				"hours": " - "
			}
		],
		"Campus": "UT Chattanooga"
	},
	{
		"Title": "Management Concepts, Theory, and Practice",
		"Subject": "MGT",
		"Level": "3150",
		"Hours": "3",
		"CRN": "40943",
		"Meeting": [
			{
				"days": "M",
				"hours": "05:30  PM - 08:00  PM"
			}
		],
		"Campus": "UT Chattanooga"
	},
	{
		"Title": "Management Concepts, Theory, and Practice",
		"Subject": "MGT",
		"Level": "3150",
		"Hours": "3",
		"CRN": "42962",
		"Meeting": [
			{
				"days": "",
				"hours": " - "
			}
		],
		"Campus": "UT Chattanooga"
	},
	{
		"Title": "Management Concepts, Theory, and Practice",
		"Subject": "MGT",
		"Level": "3150",
		"Hours": "3",
		"CRN": "42963",
		"Meeting": [
			{
				"days": "",
				"hours": " - "
			}
		],
		"Campus": "UT Chattanooga"
	},
	{
		"Title": "Management Concepts, Theory, and Practice",
		"Subject": "MGT",
		"Level": "3150",
		"Hours": "3",
		"CRN": "42306",
		"Meeting": [
			{
				"days": "TT",
				"hours": "08:00  AM - 09:15  AM"
			}
		],
		"Campus": "UT Chattanooga"
	},
	{
		"Title": "Concepts in Organizational Behavior",
		"Subject": "MGT",
		"Level": "3300",
		"Hours": "3",
		"CRN": "40354",
		"Meeting": [
			{
				"days": "TT",
				"hours": "10:50  AM - 12:05  PM"
			}
		],
		"Campus": "UT Chattanooga"
	},
	{
		"Title": "Concepts in Organizational Behavior",
		"Subject": "MGT",
		"Level": "3300",
		"Hours": "3",
		"CRN": "40355",
		"Meeting": [
			{
				"days": "TT",
				"hours": "12:15  PM - 01:30  PM"
			}
		],
		"Campus": "UT Chattanooga"
	},
	{
		"Title": "Concepts in Organizational Behavior",
		"Subject": "MGT",
		"Level": "3300",
		"Hours": "3",
		"CRN": "43394",
		"Meeting": [
			{
				"days": "",
				"hours": " - "
			}
		],
		"Campus": "UT Chattanooga"
	},
	{
		"Title": "Organizational Motivation and Leadership",
		"Subject": "MGT",
		"Level": "3310",
		"Hours": "3",
		"CRN": "40356",
		"Meeting": [
			{
				"days": "",
				"hours": " - "
			}
		],
		"Campus": "UT Chattanooga"
	},
	{
		"Title": "Organizational Motivation and Leadership",
		"Subject": "MGT",
		"Level": "3310",
		"Hours": "3",
		"CRN": "40357",
		"Meeting": [
			{
				"days": "M",
				"hours": "05:30  PM - 08:00  PM"
			}
		],
		"Campus": "UT Chattanooga"
	},
	{
		"Title": "Human Resource Management",
		"Subject": "MGT",
		"Level": "3320",
		"Hours": "3",
		"CRN": "40358",
		"Meeting": [
			{
				"days": "MW",
				"hours": "03:25  PM - 04:40  PM"
			}
		],
		"Campus": "UT Chattanooga"
	},
	{
		"Title": "Human Resource Management",
		"Subject": "MGT",
		"Level": "3320",
		"Hours": "3",
		"CRN": "41164",
		"Meeting": [
			{
				"days": "W",
				"hours": "05:30  PM - 08:00  PM"
			}
		],
		"Campus": "UT Chattanooga"
	},
	{
		"Title": "Human Resource Management",
		"Subject": "MGT",
		"Level": "3320",
		"Hours": "3",
		"CRN": "42308",
		"Meeting": [
			{
				"days": "",
				"hours": " - "
			}
		],
		"Campus": "UT Chattanooga"
	},
	{
		"Title": "Management Science",
		"Subject": "MGT",
		"Level": "3560",
		"Hours": "3",
		"CRN": "42966",
		"Meeting": [
			{
				"days": "",
				"hours": " - "
			}
		],
		"Campus": "UT Chattanooga"
	},
	{
		"Title": "Management Science",
		"Subject": "MGT",
		"Level": "3560",
		"Hours": "3",
		"CRN": "43639",
		"Meeting": [
			{
				"days": "",
				"hours": " - "
			}
		],
		"Campus": "UT Chattanooga"
	},
	{
		"Title": "Management Science",
		"Subject": "MGT",
		"Level": "3560",
		"Hours": "3",
		"CRN": "41624",
		"Meeting": [
			{
				"days": "TT",
				"hours": "12:15  PM - 01:30  PM"
			}
		],
		"Campus": "UT Chattanooga"
	},
	{
		"Title": "Management Science",
		"Subject": "MGT",
		"Level": "3560",
		"Hours": "3",
		"CRN": "43830",
		"Meeting": [
			{
				"days": "T",
				"hours": "05:30  PM - 08:00  PM"
			}
		],
		"Campus": "UT Chattanooga"
	},
	{
		"Title": "Management Information Systems",
		"Subject": "MGT",
		"Level": "3600",
		"Hours": "3",
		"CRN": "40359",
		"Meeting": [
			{
				"days": "TT",
				"hours": "09:25  AM - 10:40  AM"
			}
		],
		"Campus": "UT Chattanooga"
	},
	{
		"Title": "Management Information Systems",
		"Subject": "MGT",
		"Level": "3600",
		"Hours": "3",
		"CRN": "40360",
		"Meeting": [
			{
				"days": "",
				"hours": " - "
			}
		],
		"Campus": "UT Chattanooga"
	},
	{
		"Title": "Management Information Systems",
		"Subject": "MGT",
		"Level": "3600",
		"Hours": "3",
		"CRN": "40940",
		"Meeting": [
			{
				"days": "",
				"hours": " - "
			}
		],
		"Campus": "UT Chattanooga"
	},
	{
		"Title": "Management Information Systems",
		"Subject": "MGT",
		"Level": "3600",
		"Hours": "3",
		"CRN": "41167",
		"Meeting": [
			{
				"days": "",
				"hours": " - "
			}
		],
		"Campus": "UT Chattanooga"
	},
	{
		"Title": "Experiential Learning: Academic Internship Program",
		"Subject": "MGT",
		"Level": "3900R",
		"Hours": "1 TO 3",
		"CRN": "42311",
		"Meeting": [
			{
				"days": "",
				"hours": " - "
			}
		],
		"Campus": "UT Chattanooga"
	},
	{
		"Title": "Labor Relations & Negotiations",
		"Subject": "MGT",
		"Level": "4100",
		"Hours": "3",
		"CRN": "43693",
		"Meeting": [
			{
				"days": "T",
				"hours": "05:30  PM - 08:00  PM"
			}
		],
		"Campus": "UT Chattanooga"
	},
	{
		"Title": "Government Regulation of Human Resource Management",
		"Subject": "MGT",
		"Level": "4110",
		"Hours": "3",
		"CRN": "40362",
		"Meeting": [
			{
				"days": "T",
				"hours": "05:30  PM - 08:00  PM"
			}
		],
		"Campus": "UT Chattanooga"
	},
	{
		"Title": "Managerial Decision-Making",
		"Subject": "MGT",
		"Level": "4140",
		"Hours": "3",
		"CRN": "42312",
		"Meeting": [
			{
				"days": "",
				"hours": " - "
			}
		],
		"Campus": "UTC Online"
	},
	{
		"Title": "Databases and Data Warehouses",
		"Subject": "MGT",
		"Level": "4250",
		"Hours": "3",
		"CRN": "40941",
		"Meeting": [
			{
				"days": "TT",
				"hours": "10:50  AM - 12:05  PM"
			}
		],
		"Campus": "UT Chattanooga"
	},
	{
		"Title": "Business Intelligence",
		"Subject": "MGT",
		"Level": "4260",
		"Hours": "3",
		"CRN": "40942",
		"Meeting": [
			{
				"days": "",
				"hours": " - "
			}
		],
		"Campus": "UT Chattanooga"
	},
	{
		"Title": "Supply Chain Management",
		"Subject": "MGT",
		"Level": "4280",
		"Hours": "3",
		"CRN": "40987",
		"Meeting": [
			{
				"days": "M",
				"hours": "05:30  PM - 08:00  PM"
			}
		],
		"Campus": "UT Chattanooga"
	},
	{
		"Title": "Staffing",
		"Subject": "MGT",
		"Level": "4340",
		"Hours": "3",
		"CRN": "40363",
		"Meeting": [
			{
				"days": "MW",
				"hours": "03:25  PM - 04:40  PM"
			}
		],
		"Campus": "UT Chattanooga"
	},
	{
		"Title": "Staffing",
		"Subject": "MGT",
		"Level": "4340",
		"Hours": "3",
		"CRN": "40833",
		"Meeting": [
			{
				"days": "M",
				"hours": "05:30  PM - 08:00  PM"
			}
		],
		"Campus": "UT Chattanooga"
	},
	{
		"Title": "Compensation and Benefits",
		"Subject": "MGT",
		"Level": "4350",
		"Hours": "3",
		"CRN": "40364",
		"Meeting": [
			{
				"days": "",
				"hours": " - "
			}
		],
		"Campus": "UT Chattanooga"
	},
	{
		"Title": "Managing Diversity in Organizations",
		"Subject": "MGT",
		"Level": "4360",
		"Hours": "3",
		"CRN": "40365",
		"Meeting": [
			{
				"days": "",
				"hours": " - "
			}
		],
		"Campus": "UT Chattanooga"
	},
	{
		"Title": "International Management",
		"Subject": "MGT",
		"Level": "4380",
		"Hours": "3",
		"CRN": "40366",
		"Meeting": [
			{
				"days": "",
				"hours": " - "
			}
		],
		"Campus": "UT Chattanooga"
	},
	{
		"Title": "International Management",
		"Subject": "MGT",
		"Level": "4380",
		"Hours": "3",
		"CRN": "40367",
		"Meeting": [
			{
				"days": "T",
				"hours": "05:30  PM - 08:00  PM"
			}
		],
		"Campus": "UT Chattanooga"
	},
	{
		"Title": "Strategic Management",
		"Subject": "MGT",
		"Level": "4400",
		"Hours": "3",
		"CRN": "40368",
		"Meeting": [
			{
				"days": "",
				"hours": " - "
			}
		],
		"Campus": "UT Chattanooga"
	},
	{
		"Title": "Strategic Management",
		"Subject": "MGT",
		"Level": "4400",
		"Hours": "3",
		"CRN": "40369",
		"Meeting": [
			{
				"days": "",
				"hours": " - "
			}
		],
		"Campus": "UT Chattanooga"
	},
	{
		"Title": "Strategic Management",
		"Subject": "MGT",
		"Level": "4400",
		"Hours": "3",
		"CRN": "40370",
		"Meeting": [
			{
				"days": "",
				"hours": " - "
			}
		],
		"Campus": "UT Chattanooga"
	},
	{
		"Title": "Strategic Management",
		"Subject": "MGT",
		"Level": "4400",
		"Hours": "3",
		"CRN": "42340",
		"Meeting": [
			{
				"days": "",
				"hours": " - "
			}
		],
		"Campus": "UT Chattanooga"
	},
	{
		"Title": "Strategic Management",
		"Subject": "MGT",
		"Level": "4400",
		"Hours": "3",
		"CRN": "41165",
		"Meeting": [
			{
				"days": "TT",
				"hours": "10:50  AM - 12:05  PM"
			}
		],
		"Campus": "UT Chattanooga"
	},
	{
		"Title": "Strategic Issues in Human Resource Management",
		"Subject": "MGT",
		"Level": "4440",
		"Hours": "3",
		"CRN": "42018",
		"Meeting": [
			{
				"days": "TT",
				"hours": "12:15  PM - 01:30  PM"
			}
		],
		"Campus": "UT Chattanooga"
	},
	{
		"Title": "Project Management",
		"Subject": "MGT",
		"Level": "4550",
		"Hours": "3",
		"CRN": "41320",
		"Meeting": [
			{
				"days": "",
				"hours": " - "
			}
		],
		"Campus": "UT Chattanooga"
	},
	{
		"Title": "Departmental Thesis",
		"Subject": "MGT",
		"Level": "4995R",
		"Hours": "1 TO 3",
		"CRN": "43732",
		"Meeting": [
			{
				"days": "",
				"hours": " - "
			}
		],
		"Campus": "UT Chattanooga"
	},
	{
		"Title": "Evidence-Based Management and Improvements in HC",
		"Subject": "MGT",
		"Level": "5000R",
		"Hours": "3",
		"CRN": "42345",
		"Meeting": [
			{
				"days": "",
				"hours": " - "
			}
		],
		"Campus": "UTC Online"
	},
	{
		"Title": "Databases and Data Warehouses",
		"Subject": "MGT",
		"Level": "5140",
		"Hours": "3",
		"CRN": "40704",
		"Meeting": [
			{
				"days": "T",
				"hours": "05:30  PM - 08:00  PM"
			}
		],
		"Campus": "UT Chattanooga"
	},
	{
		"Title": "Databases and Data Warehouses",
		"Subject": "MGT",
		"Level": "5140",
		"Hours": "3",
		"CRN": "43686",
		"Meeting": [
			{
				"days": "",
				"hours": " - "
			}
		],
		"Campus": "UT Chattanooga"
	},
	{
		"Title": "Data Mining and Analytics",
		"Subject": "MGT",
		"Level": "5190",
		"Hours": "3",
		"CRN": "40705",
		"Meeting": [
			{
				"days": "T",
				"hours": "05:30  PM - 08:00  PM"
			}
		],
		"Campus": "UT Chattanooga"
	},
	{
		"Title": "Data Mining and Analytics",
		"Subject": "MGT",
		"Level": "5190",
		"Hours": "3",
		"CRN": "43687",
		"Meeting": [
			{
				"days": "",
				"hours": " - "
			}
		],
		"Campus": "UTC Online"
	},
	{
		"Title": "Organizational Behavior and Leadership",
		"Subject": "MGT",
		"Level": "5250",
		"Hours": "3",
		"CRN": "41321",
		"Meeting": [
			{
				"days": "",
				"hours": " - "
			}
		],
		"Campus": "UTC Online"
	},
	{
		"Title": "Strategic Human Capital Management",
		"Subject": "MGT",
		"Level": "5310",
		"Hours": "3",
		"CRN": "42587",
		"Meeting": [
			{
				"days": "",
				"hours": " - "
			}
		],
		"Campus": "UTC Online"
	},
	{
		"Title": "Information Technology for Business",
		"Subject": "MGT",
		"Level": "5810",
		"Hours": "3",
		"CRN": "41873",
		"Meeting": [
			{
				"days": "M",
				"hours": "05:30  PM - 08:00  PM"
			}
		],
		"Campus": "UT Chattanooga"
	},
	{
		"Title": "Quantitative Decision Analysis for Business",
		"Subject": "MGT",
		"Level": "5835",
		"Hours": "3",
		"CRN": "41323",
		"Meeting": [
			{
				"days": "W",
				"hours": "05:30  PM - 08:00  PM"
			}
		],
		"Campus": "UT Chattanooga"
	},
	{
		"Title": "Quantitative Decision Analysis for Business",
		"Subject": "MGT",
		"Level": "5835",
		"Hours": "3",
		"CRN": "43970",
		"Meeting": [
			{
				"days": "",
				"hours": " - "
			}
		],
		"Campus": "UT Chattanooga"
	},
	{
		"Title": "Strategic Management",
		"Subject": "MGT",
		"Level": "5870",
		"Hours": "3",
		"CRN": "40606",
		"Meeting": [
			{
				"days": "",
				"hours": " - "
			}
		],
		"Campus": "UTC Online"
	},
	{
		"Title": "Internship",
		"Subject": "MGT",
		"Level": "5920R",
		"Hours": "3",
		"CRN": "43664",
		"Meeting": [
			{
				"days": "",
				"hours": " - "
			}
		],
		"Campus": "UT Chattanooga"
	},
	{
		"Title": "Practicum Project",
		"Subject": "MGT",
		"Level": "5940R",
		"Hours": "3",
		"CRN": "43665",
		"Meeting": [
			{
				"days": "",
				"hours": " - "
			}
		],
		"Campus": "UT Chattanooga"
	}
]