[
	{
		"Title": "Introduction to Contemporary Art Practices",
		"Subject": "ART",
		"Level": "1000",
		"Hours": "3",
		"CRN": "41084",
		"Meeting": [
			{
				"days": "TT",
				"hours": "10:50  AM - 12:05  PM"
			}
		],
		"Campus": "UT Chattanooga"
	},
	{
		"Title": "Studio Processes",
		"Subject": "ART",
		"Level": "1010",
		"Hours": "3",
		"CRN": "40333",
		"Meeting": [
			{
				"days": "MW",
				"hours": "08:00  AM - 10:40  AM"
			}
		],
		"Campus": "UT Chattanooga"
	},
	{
		"Title": "Studio Processes",
		"Subject": "ART",
		"Level": "1010",
		"Hours": "3",
		"CRN": "40334",
		"Meeting": [
			{
				"days": "TT",
				"hours": "08:00  AM - 10:40  AM"
			}
		],
		"Campus": "UT Chattanooga"
	},
	{
		"Title": "Studio Processes",
		"Subject": "ART",
		"Level": "1010",
		"Hours": "3",
		"CRN": "40335",
		"Meeting": [
			{
				"days": "MW",
				"hours": "02:00  PM - 04:40  PM"
			}
		],
		"Campus": "UT Chattanooga"
	},
	{
		"Title": "Studio Processes",
		"Subject": "ART",
		"Level": "1010",
		"Hours": "3",
		"CRN": "40336",
		"Meeting": [
			{
				"days": "TT",
				"hours": "12:15  PM - 02:55  PM"
			}
		],
		"Campus": "UT Chattanooga"
	},
	{
		"Title": "Studio Processes",
		"Subject": "ART",
		"Level": "1010",
		"Hours": "3",
		"CRN": "42122",
		"Meeting": [
			{
				"days": "TT",
				"hours": "03:05  PM - 05:45  PM"
			}
		],
		"Campus": "UT Chattanooga"
	},
	{
		"Title": "Studio Processes",
		"Subject": "ART",
		"Level": "1010",
		"Hours": "3",
		"CRN": "42123",
		"Meeting": [
			{
				"days": "MW",
				"hours": "11:00  AM - 01:40  PM"
			}
		],
		"Campus": "UT Chattanooga"
	},
	{
		"Title": "Observational Drawing",
		"Subject": "ART",
		"Level": "1050",
		"Hours": "3",
		"CRN": "41250",
		"Meeting": [
			{
				"days": "TT",
				"hours": "08:00  AM - 10:40  AM"
			}
		],
		"Campus": "UT Chattanooga"
	},
	{
		"Title": "Observational Drawing",
		"Subject": "ART",
		"Level": "1050",
		"Hours": "3",
		"CRN": "40337",
		"Meeting": [
			{
				"days": "MW",
				"hours": "08:00  AM - 10:40  AM"
			}
		],
		"Campus": "UT Chattanooga"
	},
	{
		"Title": "Observational Drawing",
		"Subject": "ART",
		"Level": "1050",
		"Hours": "3",
		"CRN": "40338",
		"Meeting": [
			{
				"days": "MW",
				"hours": "02:00  PM - 04:40  PM"
			}
		],
		"Campus": "UT Chattanooga"
	},
	{
		"Title": "Observational Drawing",
		"Subject": "ART",
		"Level": "1050",
		"Hours": "3",
		"CRN": "40339",
		"Meeting": [
			{
				"days": "MW",
				"hours": "11:00  AM - 01:40  PM"
			}
		],
		"Campus": "UT Chattanooga"
	},
	{
		"Title": "Observational Drawing",
		"Subject": "ART",
		"Level": "1050",
		"Hours": "3",
		"CRN": "40340",
		"Meeting": [
			{
				"days": "TT",
				"hours": "12:15  PM - 02:55  PM"
			}
		],
		"Campus": "UT Chattanooga"
	},
	{
		"Title": "Observational Drawing",
		"Subject": "ART",
		"Level": "1050",
		"Hours": "3",
		"CRN": "41959",
		"Meeting": [
			{
				"days": "TT",
				"hours": "03:05  PM - 05:45  PM"
			}
		],
		"Campus": "UT Chattanooga"
	},
	{
		"Title": "Introduction to Art",
		"Subject": "ART",
		"Level": "1110",
		"Hours": "3",
		"CRN": "40341",
		"Meeting": [
			{
				"days": "",
				"hours": " - "
			}
		],
		"Campus": "UT Chattanooga"
	},
	{
		"Title": "Introduction to Art",
		"Subject": "ART",
		"Level": "1110",
		"Hours": "3",
		"CRN": "40342",
		"Meeting": [
			{
				"days": "",
				"hours": " - "
			}
		],
		"Campus": "UT Chattanooga"
	},
	{
		"Title": "Introduction to Art",
		"Subject": "ART",
		"Level": "1110",
		"Hours": "3",
		"CRN": "41481",
		"Meeting": [
			{
				"days": "",
				"hours": " - "
			}
		],
		"Campus": "UT Chattanooga"
	},
	{
		"Title": "Introduction to Art",
		"Subject": "ART",
		"Level": "1110",
		"Hours": "3",
		"CRN": "40343",
		"Meeting": [
			{
				"days": "",
				"hours": " - "
			}
		],
		"Campus": "UT Chattanooga"
	},
	{
		"Title": "Introduction to Art",
		"Subject": "ART",
		"Level": "1110",
		"Hours": "3",
		"CRN": "43213",
		"Meeting": [
			{
				"days": "",
				"hours": " - "
			}
		],
		"Campus": "UT Chattanooga"
	},
	{
		"Title": "Drawing Research and Ideation",
		"Subject": "ART",
		"Level": "2060",
		"Hours": "3",
		"CRN": "43800",
		"Meeting": [
			{
				"days": "TT",
				"hours": "08:00  AM - 10:40  AM"
			}
		],
		"Campus": "UT Chattanooga"
	},
	{
		"Title": "Drawing Research and Ideation",
		"Subject": "ART",
		"Level": "2060",
		"Hours": "3",
		"CRN": "43801",
		"Meeting": [
			{
				"days": "TT",
				"hours": "10:50  AM - 01:30  PM"
			}
		],
		"Campus": "UT Chattanooga"
	},
	{
		"Title": "Painting I",
		"Subject": "ART",
		"Level": "2070",
		"Hours": "3",
		"CRN": "40344",
		"Meeting": [
			{
				"days": "MW",
				"hours": "11:00  AM - 01:40  PM"
			}
		],
		"Campus": "UT Chattanooga"
	},
	{
		"Title": "Painting I",
		"Subject": "ART",
		"Level": "2070",
		"Hours": "3",
		"CRN": "41212",
		"Meeting": [
			{
				"days": "MW",
				"hours": "08:00  AM - 10:40  AM"
			}
		],
		"Campus": "UT Chattanooga"
	},
	{
		"Title": "Painting I",
		"Subject": "ART",
		"Level": "2070",
		"Hours": "3",
		"CRN": "43214",
		"Meeting": [
			{
				"days": "MW",
				"hours": "02:00  PM - 04:40  PM"
			}
		],
		"Campus": "UT Chattanooga"
	},
	{
		"Title": "The History of Western Art from Prehistoric Through Medieval",
		"Subject": "ART",
		"Level": "2140",
		"Hours": "3",
		"CRN": "40346",
		"Meeting": [
			{
				"days": "MW",
				"hours": "02:00  PM - 03:15  PM"
			}
		],
		"Campus": "UT Chattanooga"
	},
	{
		"Title": "The History of Western Art from Prehistoric Through Medieval",
		"Subject": "ART",
		"Level": "2140",
		"Hours": "3",
		"CRN": "41258",
		"Meeting": [
			{
				"days": "TT",
				"hours": "10:50  AM - 12:05  PM"
			}
		],
		"Campus": "UT Chattanooga"
	},
	{
		"Title": "Sculpture I",
		"Subject": "ART",
		"Level": "2330",
		"Hours": "3",
		"CRN": "41215",
		"Meeting": [
			{
				"days": "MW",
				"hours": "08:00  AM - 10:40  AM"
			}
		],
		"Campus": "UT Chattanooga"
	},
	{
		"Title": "Sculpture I",
		"Subject": "ART",
		"Level": "2330",
		"Hours": "3",
		"CRN": "40894",
		"Meeting": [
			{
				"days": "TT",
				"hours": "10:50  AM - 01:30  PM"
			}
		],
		"Campus": "UT Chattanooga"
	},
	{
		"Title": "Sculpture I",
		"Subject": "ART",
		"Level": "2330",
		"Hours": "3",
		"CRN": "43879",
		"Meeting": [
			{
				"days": "TT",
				"hours": "08:00  AM - 10:40  AM"
			}
		],
		"Campus": "UT Chattanooga"
	},
	{
		"Title": "Visual Literacy for Graphic Design",
		"Subject": "ART",
		"Level": "2601",
		"Hours": "3",
		"CRN": "41352",
		"Meeting": [
			{
				"days": "MW",
				"hours": "08:00  AM - 10:40  AM"
			},
			{
				"days": "MW",
				"hours": "08:00  AM - 10:40  AM"
			}
		],
		"Campus": "UT Chattanooga"
	},
	{
		"Title": "Visual Literacy for Graphic Design",
		"Subject": "ART",
		"Level": "2601",
		"Hours": "3",
		"CRN": "41989",
		"Meeting": [
			{
				"days": "MW",
				"hours": "02:00  PM - 04:40  PM"
			},
			{
				"days": "MW",
				"hours": "02:00  PM - 04:40  PM"
			}
		],
		"Campus": "UT Chattanooga"
	},
	{
		"Title": "Visual Literacy for Graphic Design",
		"Subject": "ART",
		"Level": "2601",
		"Hours": "3",
		"CRN": "43215",
		"Meeting": [
			{
				"days": "TT",
				"hours": "01:40  PM - 04:20  PM"
			},
			{
				"days": "TT",
				"hours": "01:40  PM - 04:20  PM"
			}
		],
		"Campus": "UT Chattanooga"
	},
	{
		"Title": "Photography I",
		"Subject": "ART",
		"Level": "2810",
		"Hours": "3",
		"CRN": "40347",
		"Meeting": [
			{
				"days": "MW",
				"hours": "08:00  AM - 10:40  AM"
			},
			{
				"days": "MW",
				"hours": "08:00  AM - 10:40  AM"
			}
		],
		"Campus": "UT Chattanooga"
	},
	{
		"Title": "Photography I",
		"Subject": "ART",
		"Level": "2810",
		"Hours": "3",
		"CRN": "40594",
		"Meeting": [
			{
				"days": "MW",
				"hours": "11:00  AM - 01:40  PM"
			},
			{
				"days": "MW",
				"hours": "11:00  AM - 01:40  PM"
			}
		],
		"Campus": "UT Chattanooga"
	},
	{
		"Title": "Photography I",
		"Subject": "ART",
		"Level": "2810",
		"Hours": "3",
		"CRN": "41213",
		"Meeting": [
			{
				"days": "TT",
				"hours": "01:40  PM - 04:20  PM"
			},
			{
				"days": "TT",
				"hours": "01:40  PM - 04:20  PM"
			}
		],
		"Campus": "UT Chattanooga"
	},
	{
		"Title": "Media Art I",
		"Subject": "ART",
		"Level": "2830",
		"Hours": "3",
		"CRN": "41259",
		"Meeting": [
			{
				"days": "MW",
				"hours": "02:00  PM - 04:40  PM"
			},
			{
				"days": "MW",
				"hours": "02:00  PM - 04:40  PM"
			}
		],
		"Campus": "UT Chattanooga"
	},
	{
		"Title": "Survey of Time-based Art",
		"Subject": "ART",
		"Level": "2840",
		"Hours": "3",
		"CRN": "40541",
		"Meeting": [
			{
				"days": "TT",
				"hours": "09:25  AM - 10:40  AM"
			}
		],
		"Campus": "UT Chattanooga"
	},
	{
		"Title": "Painting and Drawing Studio I",
		"Subject": "ART",
		"Level": "3070",
		"Hours": "3",
		"CRN": "40348",
		"Meeting": [
			{
				"days": "MW",
				"hours": "08:00  AM - 10:40  AM"
			}
		],
		"Campus": "UT Chattanooga"
	},
	{
		"Title": "Critical Theory for the Visual Artist",
		"Subject": "ART",
		"Level": "3100",
		"Hours": "3",
		"CRN": "40549",
		"Meeting": [
			{
				"days": "",
				"hours": " - "
			}
		],
		"Campus": "UT Chattanooga"
	},
	{
		"Title": "Materials and Procedures In Art Education I",
		"Subject": "ART",
		"Level": "3230",
		"Hours": "3",
		"CRN": "41514",
		"Meeting": [
			{
				"days": "MW",
				"hours": "11:00  AM - 12:15  PM"
			}
		],
		"Campus": "UT Chattanooga"
	},
	{
		"Title": "Sculpture Studio I",
		"Subject": "ART",
		"Level": "3370",
		"Hours": "3",
		"CRN": "40974",
		"Meeting": [
			{
				"days": "MW",
				"hours": "02:00  PM - 04:40  PM"
			},
			{
				"days": "MW",
				"hours": "02:00  PM - 04:40  PM"
			}
		],
		"Campus": "UT Chattanooga"
	},
	{
		"Title": "Typography II",
		"Subject": "ART",
		"Level": "3611",
		"Hours": "3",
		"CRN": "41354",
		"Meeting": [
			{
				"days": "MW",
				"hours": "11:00  AM - 01:40  PM"
			},
			{
				"days": "MW",
				"hours": "11:00  AM - 01:40  PM"
			}
		],
		"Campus": "UT Chattanooga"
	},
	{
		"Title": "Typography II",
		"Subject": "ART",
		"Level": "3611",
		"Hours": "3",
		"CRN": "43718",
		"Meeting": [
			{
				"days": "TT",
				"hours": "08:00  AM - 10:40  AM"
			},
			{
				"days": "TT",
				"hours": "08:00  AM - 10:40  AM"
			}
		],
		"Campus": "UT Chattanooga"
	},
	{
		"Title": "Interactive Media",
		"Subject": "ART",
		"Level": "3621",
		"Hours": "3",
		"CRN": "42750",
		"Meeting": [
			{
				"days": "MW",
				"hours": "04:50  PM - 07:30  PM"
			},
			{
				"days": "MW",
				"hours": "04:50  PM - 07:30  PM"
			}
		],
		"Campus": "UT Chattanooga"
	},
	{
		"Title": "Processes and Materials for Graphic Design",
		"Subject": "ART",
		"Level": "3631",
		"Hours": "3",
		"CRN": "41431",
		"Meeting": [
			{
				"days": "TT",
				"hours": "10:50  AM - 01:30  PM"
			},
			{
				"days": "TT",
				"hours": "10:50  AM - 01:30  PM"
			}
		],
		"Campus": "UT Chattanooga"
	},
	{
		"Title": "Processes and Materials for Graphic Design",
		"Subject": "ART",
		"Level": "3631",
		"Hours": "3",
		"CRN": "42751",
		"Meeting": [
			{
				"days": "TT",
				"hours": "04:30  PM - 07:10  PM"
			},
			{
				"days": "TT",
				"hours": "04:30  PM - 07:10  PM"
			}
		],
		"Campus": "UT Chattanooga"
	},
	{
		"Title": "Sculpture III",
		"Subject": "ART",
		"Level": "3660",
		"Hours": "3",
		"CRN": "40975",
		"Meeting": [
			{
				"days": "MW",
				"hours": "11:00  AM - 01:40  PM"
			}
		],
		"Campus": "UT Chattanooga"
	},
	{
		"Title": "Media Art II",
		"Subject": "ART",
		"Level": "3830",
		"Hours": "3",
		"CRN": "40624",
		"Meeting": [
			{
				"days": "TT",
				"hours": "10:50  AM - 01:30  PM"
			},
			{
				"days": "TT",
				"hours": "10:50  AM - 01:30  PM"
			}
		],
		"Campus": "UT Chattanooga"
	},
	{
		"Title": "Photography and Media Art Studio I",
		"Subject": "ART",
		"Level": "3840",
		"Hours": "3",
		"CRN": "40540",
		"Meeting": [
			{
				"days": "MW",
				"hours": "02:00  PM - 04:40  PM"
			}
		],
		"Campus": "UT Chattanooga"
	},
	{
		"Title": "Visual Arts Internship",
		"Subject": "ART",
		"Level": "4010",
		"Hours": "3",
		"CRN": "40542",
		"Meeting": [
			{
				"days": "",
				"hours": " - "
			}
		],
		"Campus": "UT Chattanooga"
	},
	{
		"Title": "Drawing V",
		"Subject": "ART",
		"Level": "4050",
		"Hours": "3",
		"CRN": "40349",
		"Meeting": [
			{
				"days": "TT",
				"hours": "03:05  PM - 05:45  PM"
			}
		],
		"Campus": "UT Chattanooga"
	},
	{
		"Title": "Painting and Drawing Studio III",
		"Subject": "ART",
		"Level": "4070",
		"Hours": "3",
		"CRN": "40350",
		"Meeting": [
			{
				"days": "MW",
				"hours": "02:00  PM - 04:40  PM"
			}
		],
		"Campus": "UT Chattanooga"
	},
	{
		"Title": "Art History: Islamic Art: Calligraphy to Contemporary Visual Culture",
		"Subject": "ART",
		"Level": "4190R",
		"Hours": "3",
		"CRN": "42125",
		"Meeting": [
			{
				"days": "TT",
				"hours": "01:40  PM - 02:55  PM"
			}
		],
		"Campus": "UT Chattanooga"
	},
	{
		"Title": "The Rococco: Sensuality and Statesmanship",
		"Subject": "ART",
		"Level": "4190R",
		"Hours": "3",
		"CRN": "42126",
		"Meeting": [
			{
				"days": "MW",
				"hours": "11:00  AM - 12:15  PM"
			}
		],
		"Campus": "UT Chattanooga"
	},
	{
		"Title": "Latin American Art Modern and Contemporary Art",
		"Subject": "ART",
		"Level": "4190R",
		"Hours": "3",
		"CRN": "43218",
		"Meeting": [
			{
				"days": "MW",
				"hours": "09:00  AM - 10:15  AM"
			}
		],
		"Campus": "UT Chattanooga"
	},
	{
		"Title": "Art History: Object Archeology",
		"Subject": "ART",
		"Level": "4190R",
		"Hours": "3",
		"CRN": "43217",
		"Meeting": [
			{
				"days": "TT",
				"hours": "10:50  AM - 12:05  PM"
			}
		],
		"Campus": "UT Chattanooga"
	},
	{
		"Title": "Site and Context",
		"Subject": "ART",
		"Level": "4310",
		"Hours": "3",
		"CRN": "43219",
		"Meeting": [
			{
				"days": "TT",
				"hours": "03:05  PM - 05:45  PM"
			}
		],
		"Campus": "UT Chattanooga"
	},
	{
		"Title": "Sculpture Studio III",
		"Subject": "ART",
		"Level": "4370",
		"Hours": "3",
		"CRN": "41159",
		"Meeting": [
			{
				"days": "MW",
				"hours": "02:00  PM - 04:40  PM"
			},
			{
				"days": "MW",
				"hours": "02:00  PM - 04:40  PM"
			}
		],
		"Campus": "UT Chattanooga"
	},
	{
		"Title": "Graphic Design Workshop I",
		"Subject": "ART",
		"Level": "4601",
		"Hours": "3",
		"CRN": "41433",
		"Meeting": [
			{
				"days": "MW",
				"hours": "02:00  PM - 04:40  PM"
			}
		],
		"Campus": "UT Chattanooga"
	},
	{
		"Title": "Interdisciplinary Research",
		"Subject": "ART",
		"Level": "4830",
		"Hours": "3",
		"CRN": "40595",
		"Meeting": [
			{
				"days": "TT",
				"hours": "03:05  PM - 05:45  PM"
			}
		],
		"Campus": "UT Chattanooga"
	},
	{
		"Title": "Photography and Media Art Studio III",
		"Subject": "ART",
		"Level": "4840",
		"Hours": "3",
		"CRN": "40598",
		"Meeting": [
			{
				"days": "TT",
				"hours": "08:00  AM - 10:40  AM"
			}
		],
		"Campus": "UT Chattanooga"
	},
	{
		"Title": "Special topics: Apothecary",
		"Subject": "ART",
		"Level": "4900R",
		"Hours": "3",
		"CRN": "42129",
		"Meeting": [
			{
				"days": "TT",
				"hours": "12:15  PM - 01:30  PM"
			}
		],
		"Campus": "UT Chattanooga"
	},
	{
		"Title": "Departmental Thesis",
		"Subject": "ART",
		"Level": "4995R",
		"Hours": "1 TO 3",
		"CRN": "43750",
		"Meeting": [
			{
				"days": "",
				"hours": " - "
			}
		],
		"Campus": "UT Chattanooga"
	},
	{
		"Title": "Departmental Thesis",
		"Subject": "ART",
		"Level": "4995R",
		"Hours": "1 TO 3",
		"CRN": "43751",
		"Meeting": [
			{
				"days": "",
				"hours": " - "
			}
		],
		"Campus": "UT Chattanooga"
	},
	{
		"Title": "Individual Studies",
		"Subject": "ART",
		"Level": "4998R",
		"Hours": "1 TO 9",
		"CRN": "42925",
		"Meeting": [
			{
				"days": "",
				"hours": " - "
			}
		],
		"Campus": "UT Chattanooga"
	},
	{
		"Title": "Individual Studies",
		"Subject": "ART",
		"Level": "4998R",
		"Hours": "1 TO 9",
		"CRN": "43133",
		"Meeting": [
			{
				"days": "",
				"hours": " - "
			}
		],
		"Campus": "UT Chattanooga"
	},
	{
		"Title": "Individual Studies",
		"Subject": "ART",
		"Level": "4998R",
		"Hours": "1 TO 9",
		"CRN": "42929",
		"Meeting": [
			{
				"days": "",
				"hours": " - "
			}
		],
		"Campus": "UT Chattanooga"
	},
	{
		"Title": "Individual Studies",
		"Subject": "ART",
		"Level": "4998R",
		"Hours": "1 TO 9",
		"CRN": "42771",
		"Meeting": [
			{
				"days": "",
				"hours": " - "
			}
		],
		"Campus": "UT Chattanooga"
	},
	{
		"Title": "Individual Studies",
		"Subject": "ART",
		"Level": "4998R",
		"Hours": "1 TO 9",
		"CRN": "43973",
		"Meeting": [
			{
				"days": "",
				"hours": " - "
			}
		],
		"Campus": "UT Chattanooga"
	},
	{
		"Title": "Individual Studies",
		"Subject": "ART",
		"Level": "4998R",
		"Hours": "1 TO 9",
		"CRN": "42926",
		"Meeting": [
			{
				"days": "",
				"hours": " - "
			}
		],
		"Campus": "UT Chattanooga"
	},
	{
		"Title": "Individual Studies",
		"Subject": "ART",
		"Level": "4998R",
		"Hours": "1 TO 9",
		"CRN": "42922",
		"Meeting": [
			{
				"days": "",
				"hours": " - "
			}
		],
		"Campus": "UT Chattanooga"
	},
	{
		"Title": "Individual Studies",
		"Subject": "ART",
		"Level": "4998R",
		"Hours": "1 TO 9",
		"CRN": "44035",
		"Meeting": [
			{
				"days": "",
				"hours": " - "
			}
		],
		"Campus": "UT Chattanooga"
	}
]