[
	{
		"Title": "Mysteries of the Human Journey",
		"Subject": "ANTH",
		"Level": "1000",
		"Hours": "3",
		"CRN": "40854",
		"Meeting": [
			{
				"days": "",
				"hours": " - "
			}
		],
		"Campus": "UT Chattanooga"
	},
	{
		"Title": "Mysteries of the Human Journey",
		"Subject": "ANTH",
		"Level": "1000",
		"Hours": "3",
		"CRN": "40853",
		"Meeting": [
			{
				"days": "MW",
				"hours": "02:00  PM - 03:15  PM"
			}
		],
		"Campus": "UT Chattanooga"
	},
	{
		"Title": "Biological Anthropology",
		"Subject": "ANTH",
		"Level": "1100",
		"Hours": "4",
		"CRN": "40855",
		"Meeting": [
			{
				"days": "",
				"hours": " - "
			}
		],
		"Campus": "UT Chattanooga"
	},
	{
		"Title": "Biological Anthropology Laboratory",
		"Subject": "ANTH",
		"Level": "1100L",
		"Hours": "0",
		"CRN": "40856",
		"Meeting": [
			{
				"days": "T",
				"hours": "01:40  PM - 03:30  PM"
			}
		],
		"Campus": "UT Chattanooga"
	},
	{
		"Title": "Biological Anthropology Laboratory",
		"Subject": "ANTH",
		"Level": "1100L",
		"Hours": "0",
		"CRN": "40857",
		"Meeting": [
			{
				"days": "T",
				"hours": "01:40  PM - 03:30  PM"
			}
		],
		"Campus": "UT Chattanooga"
	},
	{
		"Title": "Biological Anthropology Laboratory",
		"Subject": "ANTH",
		"Level": "1100L",
		"Hours": "0",
		"CRN": "40858",
		"Meeting": [
			{
				"days": "T",
				"hours": "09:00  AM - 10:50  AM"
			}
		],
		"Campus": "UT Chattanooga"
	},
	{
		"Title": "Cultural Anthropology",
		"Subject": "ANTH",
		"Level": "1200",
		"Hours": "3",
		"CRN": "42916",
		"Meeting": [
			{
				"days": "",
				"hours": " - "
			}
		],
		"Campus": "UT Chattanooga"
	},
	{
		"Title": "Cultural Anthropology",
		"Subject": "ANTH",
		"Level": "1200",
		"Hours": "3",
		"CRN": "40860",
		"Meeting": [
			{
				"days": "",
				"hours": " - "
			}
		],
		"Campus": "UT Chattanooga"
	},
	{
		"Title": "Cultural Anthropology",
		"Subject": "ANTH",
		"Level": "1200",
		"Hours": "3",
		"CRN": "40862",
		"Meeting": [
			{
				"days": "TT",
				"hours": "01:40  PM - 02:55  PM"
			}
		],
		"Campus": "UT Chattanooga"
	},
	{
		"Title": "Cultural Anthropology",
		"Subject": "ANTH",
		"Level": "1200",
		"Hours": "3",
		"CRN": "41472",
		"Meeting": [
			{
				"days": "",
				"hours": " - "
			}
		],
		"Campus": "UT Chattanooga"
	},
	{
		"Title": "Cultural Anthropology",
		"Subject": "ANTH",
		"Level": "1200",
		"Hours": "3",
		"CRN": "40861",
		"Meeting": [
			{
				"days": "MWF",
				"hours": "11:00  AM - 11:50  AM"
			}
		],
		"Campus": "UT Chattanooga"
	},
	{
		"Title": "Cultural Anthropology",
		"Subject": "ANTH",
		"Level": "1200",
		"Hours": "3",
		"CRN": "43202",
		"Meeting": [
			{
				"days": "W",
				"hours": "05:00  PM - 07:30  PM"
			}
		],
		"Campus": "UT Chattanooga"
	},
	{
		"Title": "Cultural Anthropology",
		"Subject": "ANTH",
		"Level": "1200",
		"Hours": "3",
		"CRN": "41474",
		"Meeting": [
			{
				"days": "MWF",
				"hours": "09:00  AM - 09:50  AM"
			}
		],
		"Campus": "UT Chattanooga"
	},
	{
		"Title": "Cultural Anthropology",
		"Subject": "ANTH",
		"Level": "1200",
		"Hours": "3",
		"CRN": "43203",
		"Meeting": [
			{
				"days": "TT",
				"hours": "09:25  AM - 10:40  AM"
			}
		],
		"Campus": "UT Chattanooga"
	},
	{
		"Title": "Cultural Anthropology",
		"Subject": "ANTH",
		"Level": "1200",
		"Hours": "3",
		"CRN": "43204",
		"Meeting": [
			{
				"days": "",
				"hours": " - "
			}
		],
		"Campus": "UT Chattanooga"
	},
	{
		"Title": "Cultural Anthropology",
		"Subject": "ANTH",
		"Level": "1200",
		"Hours": "3",
		"CRN": "43205",
		"Meeting": [
			{
				"days": "",
				"hours": " - "
			}
		],
		"Campus": "UT Chattanooga"
	},
	{
		"Title": "Cultural Anthropology",
		"Subject": "ANTH",
		"Level": "1200",
		"Hours": "3",
		"CRN": "43949",
		"Meeting": [
			{
				"days": "TT",
				"hours": "12:15  PM - 01:30  PM"
			}
		],
		"Campus": "UT Chattanooga"
	},
	{
		"Title": "Archaeology",
		"Subject": "ANTH",
		"Level": "1400",
		"Hours": "3",
		"CRN": "40863",
		"Meeting": [
			{
				"days": "MW",
				"hours": "03:25  PM - 04:40  PM"
			}
		],
		"Campus": "UT Chattanooga"
	},
	{
		"Title": "Archaeology",
		"Subject": "ANTH",
		"Level": "1400",
		"Hours": "3",
		"CRN": "43211",
		"Meeting": [
			{
				"days": "",
				"hours": " - "
			}
		],
		"Campus": "UT Chattanooga"
	},
	{
		"Title": "Human Origins",
		"Subject": "ANTH",
		"Level": "2200",
		"Hours": "3",
		"CRN": "43661",
		"Meeting": [
			{
				"days": "MW",
				"hours": "05:00  PM - 06:15  PM"
			}
		],
		"Campus": "UT Chattanooga"
	},
	{
		"Title": "World Prehistory",
		"Subject": "ANTH",
		"Level": "2400",
		"Hours": "3",
		"CRN": "43206",
		"Meeting": [
			{
				"days": "TT",
				"hours": "12:15  PM - 01:30  PM"
			}
		],
		"Campus": "UT Chattanooga"
	},
	{
		"Title": "Ethnographic Methods",
		"Subject": "ANTH",
		"Level": "3100",
		"Hours": "3",
		"CRN": "41256",
		"Meeting": [
			{
				"days": "TT",
				"hours": "01:40  PM - 02:55  PM"
			}
		],
		"Campus": "UT Chattanooga"
	},
	{
		"Title": "Chinese Society and Culture",
		"Subject": "ANTH",
		"Level": "3160",
		"Hours": "3",
		"CRN": "41351",
		"Meeting": [
			{
				"days": "TT",
				"hours": "01:40  PM - 02:55  PM"
			}
		],
		"Campus": "UT Chattanooga"
	},
	{
		"Title": "Archaeological Field Methods",
		"Subject": "ANTH",
		"Level": "3350",
		"Hours": "3 OR 6",
		"CRN": "43651",
		"Meeting": [
			{
				"days": "F",
				"hours": "08:00  AM - 05:00  PM"
			}
		],
		"Campus": "UT Chattanooga"
	},
	{
		"Title": "Archaeological Field Methods",
		"Subject": "ANTH",
		"Level": "3350",
		"Hours": "6",
		"CRN": "43699",
		"Meeting": [
			{
				"days": "",
				"hours": " - "
			}
		],
		"Campus": "UT Chattanooga"
	},
	{
		"Title": "Southeastern Native Americans",
		"Subject": "ANTH",
		"Level": "3360",
		"Hours": "3",
		"CRN": "43207",
		"Meeting": [
			{
				"days": "TT",
				"hours": "09:25  AM - 10:40  AM"
			}
		],
		"Campus": "UT Chattanooga"
	},
	{
		"Title": "Anthropology Internship",
		"Subject": "ANTH",
		"Level": "4940R",
		"Hours": "3",
		"CRN": "43208",
		"Meeting": [
			{
				"days": "",
				"hours": " - "
			}
		],
		"Campus": "UT Chattanooga"
	},
	{
		"Title": "Anthropology Internship",
		"Subject": "ANTH",
		"Level": "4940R",
		"Hours": "3 TO 6",
		"CRN": "44044",
		"Meeting": [
			{
				"days": "",
				"hours": " - "
			}
		],
		"Campus": "UT Chattanooga"
	},
	{
		"Title": "Departmental Thesis",
		"Subject": "ANTH",
		"Level": "4995R",
		"Hours": "1 TO 3",
		"CRN": "43749",
		"Meeting": [
			{
				"days": "",
				"hours": " - "
			}
		],
		"Campus": "UT Chattanooga"
	},
	{
		"Title": "Individual Studies",
		"Subject": "ANTH",
		"Level": "4998R",
		"Hours": "1 TO 9",
		"CRN": "43719",
		"Meeting": [
			{
				"days": "",
				"hours": " - "
			}
		],
		"Campus": "UT Chattanooga"
	},
	{
		"Title": "Individual Studies",
		"Subject": "ANTH",
		"Level": "4998R",
		"Hours": "1 TO 9",
		"CRN": "44038",
		"Meeting": [
			{
				"days": "",
				"hours": " - "
			}
		],
		"Campus": "UT Chattanooga"
	},
	{
		"Title": "Individual Studies",
		"Subject": "ANTH",
		"Level": "4998R",
		"Hours": "1 TO 9",
		"CRN": "43190",
		"Meeting": [
			{
				"days": "",
				"hours": " - "
			}
		],
		"Campus": "UT Chattanooga"
	},
	{
		"Title": "Analytical and Laboratory Methods in Archeology",
		"Subject": "ANTH",
		"Level": "4999R",
		"Hours": "3",
		"CRN": "43209",
		"Meeting": [
			{
				"days": "M",
				"hours": "05:30  PM - 08:00  PM"
			}
		],
		"Campus": "UT Chattanooga"
	}
]