[
	{
		"Title": "Design Fundamentals",
		"Subject": "IARC",
		"Level": "1000",
		"Hours": "3",
		"CRN": "41124",
		"Meeting": [
			{
				"days": "TT",
				"hours": "09:25  AM - 12:05  PM"
			}
		],
		"Campus": "UT Chattanooga"
	},
	{
		"Title": "Design Fundamentals",
		"Subject": "IARC",
		"Level": "1000",
		"Hours": "3",
		"CRN": "41072",
		"Meeting": [
			{
				"days": "MW",
				"hours": "12:00  PM - 02:30  PM"
			}
		],
		"Campus": "UT Chattanooga"
	},
	{
		"Title": "Design Fundamentals",
		"Subject": "IARC",
		"Level": "1000",
		"Hours": "3",
		"CRN": "43388",
		"Meeting": [
			{
				"days": "MW",
				"hours": "03:00  PM - 05:30  PM"
			}
		],
		"Campus": "UT Chattanooga"
	},
	{
		"Title": "Volume, Space, and Form",
		"Subject": "IARC",
		"Level": "1050",
		"Hours": "3",
		"CRN": "41157",
		"Meeting": [
			{
				"days": "MW",
				"hours": "09:00  AM - 11:30  AM"
			}
		],
		"Campus": "UT Chattanooga"
	},
	{
		"Title": "Volume, Space, and Form",
		"Subject": "IARC",
		"Level": "1050",
		"Hours": "3",
		"CRN": "41158",
		"Meeting": [
			{
				"days": "MW",
				"hours": "12:00  PM - 02:30  PM"
			}
		],
		"Campus": "UT Chattanooga"
	},
	{
		"Title": "Architectural Drafting",
		"Subject": "IARC",
		"Level": "1100",
		"Hours": "3",
		"CRN": "41075",
		"Meeting": [
			{
				"days": "TT",
				"hours": "09:25  AM - 12:05  PM"
			}
		],
		"Campus": "UT Chattanooga"
	},
	{
		"Title": "Architectural Drafting",
		"Subject": "IARC",
		"Level": "1100",
		"Hours": "3",
		"CRN": "42988",
		"Meeting": [
			{
				"days": "TT",
				"hours": "01:40  PM - 04:20  PM"
			}
		],
		"Campus": "UT Chattanooga"
	},
	{
		"Title": "Color Systems",
		"Subject": "IARC",
		"Level": "1150",
		"Hours": "3",
		"CRN": "43854",
		"Meeting": [
			{
				"days": "MF",
				"hours": "03:00  PM - 05:30  PM"
			}
		],
		"Campus": "UT Chattanooga"
	},
	{
		"Title": "Color Systems",
		"Subject": "IARC",
		"Level": "1150",
		"Hours": "3",
		"CRN": "43855",
		"Meeting": [
			{
				"days": "WF",
				"hours": "03:00  PM - 05:30  PM"
			}
		],
		"Campus": "UT Chattanooga"
	},
	{
		"Title": "Survey of Architecture",
		"Subject": "IARC",
		"Level": "1200",
		"Hours": "3",
		"CRN": "42197",
		"Meeting": [
			{
				"days": "TT",
				"hours": "12:15  PM - 01:30  PM"
			}
		],
		"Campus": "UT Chattanooga"
	},
	{
		"Title": "Survey of Architecture",
		"Subject": "IARC",
		"Level": "1200",
		"Hours": "3",
		"CRN": "43644",
		"Meeting": [
			{
				"days": "MW",
				"hours": "03:25  PM - 04:40  PM"
			}
		],
		"Campus": "UT Chattanooga"
	},
	{
		"Title": "Survey of Architecture",
		"Subject": "IARC",
		"Level": "1200",
		"Hours": "3",
		"CRN": "41080",
		"Meeting": [
			{
				"days": "TT",
				"hours": "09:25  AM - 10:40  AM"
			}
		],
		"Campus": "UT Chattanooga"
	},
	{
		"Title": "Survey of Architecture",
		"Subject": "IARC",
		"Level": "1200",
		"Hours": "3",
		"CRN": "41605",
		"Meeting": [
			{
				"days": "TT",
				"hours": "10:50  AM - 12:05  PM"
			}
		],
		"Campus": "UT Chattanooga"
	},
	{
		"Title": "Survey of Architecture",
		"Subject": "IARC",
		"Level": "1200",
		"Hours": "3",
		"CRN": "43385",
		"Meeting": [
			{
				"days": "TT",
				"hours": "09:25  AM - 10:40  AM"
			}
		],
		"Campus": "UT Chattanooga"
	},
	{
		"Title": "Survey of Architecture",
		"Subject": "IARC",
		"Level": "1200",
		"Hours": "3",
		"CRN": "41204",
		"Meeting": [
			{
				"days": "",
				"hours": " - "
			}
		],
		"Campus": "UT Chattanooga"
	},
	{
		"Title": "Survey of Architecture",
		"Subject": "IARC",
		"Level": "1200",
		"Hours": "3",
		"CRN": "41607",
		"Meeting": [
			{
				"days": "",
				"hours": " - "
			}
		],
		"Campus": "UT Chattanooga"
	},
	{
		"Title": "Survey of Architecture",
		"Subject": "IARC",
		"Level": "1200",
		"Hours": "3",
		"CRN": "43672",
		"Meeting": [
			{
				"days": "",
				"hours": " - "
			}
		],
		"Campus": "UT Chattanooga"
	},
	{
		"Title": "Survey of Architecture",
		"Subject": "IARC",
		"Level": "1200",
		"Hours": "3",
		"CRN": "43673",
		"Meeting": [
			{
				"days": "",
				"hours": " - "
			}
		],
		"Campus": "UT Chattanooga"
	},
	{
		"Title": "Survey of Architecture",
		"Subject": "IARC",
		"Level": "1200",
		"Hours": "3",
		"CRN": "43981",
		"Meeting": [
			{
				"days": "",
				"hours": " - "
			}
		],
		"Campus": "UT Chattanooga"
	},
	{
		"Title": "Space Planning",
		"Subject": "IARC",
		"Level": "2000",
		"Hours": "3",
		"CRN": "41081",
		"Meeting": [
			{
				"days": "MW",
				"hours": "09:00  AM - 11:30  AM"
			}
		],
		"Campus": "UT Chattanooga"
	},
	{
		"Title": "Visual Presentation",
		"Subject": "IARC",
		"Level": "2050",
		"Hours": "3",
		"CRN": "41082",
		"Meeting": [
			{
				"days": "TT",
				"hours": "03:05  PM - 05:30  PM"
			}
		],
		"Campus": "UT Chattanooga"
	},
	{
		"Title": "Interior Textiles",
		"Subject": "IARC",
		"Level": "2210",
		"Hours": "3",
		"CRN": "43670",
		"Meeting": [
			{
				"days": "TT",
				"hours": "09:25  AM - 10:40  AM"
			}
		],
		"Campus": "UT Chattanooga"
	},
	{
		"Title": "Commercial Interiors I",
		"Subject": "IARC",
		"Level": "3000",
		"Hours": "3",
		"CRN": "41306",
		"Meeting": [
			{
				"days": "MW",
				"hours": "09:00  AM - 11:30  AM"
			}
		],
		"Campus": "UT Chattanooga"
	},
	{
		"Title": "Construction Documents",
		"Subject": "IARC",
		"Level": "3050",
		"Hours": "3",
		"CRN": "41307",
		"Meeting": [
			{
				"days": "MW",
				"hours": "12:00  PM - 02:30  PM"
			}
		],
		"Campus": "UT Chattanooga"
	},
	{
		"Title": "Computer-Aided Design I",
		"Subject": "IARC",
		"Level": "3090",
		"Hours": "3",
		"CRN": "41709",
		"Meeting": [
			{
				"days": "MW",
				"hours": "03:00  PM - 05:30  PM"
			}
		],
		"Campus": "UT Chattanooga"
	},
	{
		"Title": "History of Design I",
		"Subject": "IARC",
		"Level": "3200",
		"Hours": "3",
		"CRN": "41308",
		"Meeting": [
			{
				"days": "TT",
				"hours": "09:25  AM - 10:40  AM"
			}
		],
		"Campus": "UT Chattanooga"
	},
	{
		"Title": "Codes and Specifications",
		"Subject": "IARC",
		"Level": "3220",
		"Hours": "3",
		"CRN": "41453",
		"Meeting": [
			{
				"days": "TT",
				"hours": "10:50  AM - 12:05  PM"
			}
		],
		"Campus": "UT Chattanooga"
	},
	{
		"Title": "Professional Cmpetence",
		"Subject": "IARC",
		"Level": "3900",
		"Hours": "3",
		"CRN": "43386",
		"Meeting": [
			{
				"days": "WF",
				"hours": "02:00  PM - 04:30  PM"
			}
		],
		"Campus": "UT Chattanooga"
	},
	{
		"Title": "Responsive Design",
		"Subject": "IARC",
		"Level": "4050",
		"Hours": "3",
		"CRN": "41085",
		"Meeting": [
			{
				"days": "MW",
				"hours": "12:00  PM - 02:30  PM"
			}
		],
		"Campus": "UT Chattanooga"
	},
	{
		"Title": "Senior Thesis I",
		"Subject": "IARC",
		"Level": "4100",
		"Hours": "3",
		"CRN": "41086",
		"Meeting": [
			{
				"days": "MW",
				"hours": "09:00  AM - 11:30  AM"
			}
		],
		"Campus": "UT Chattanooga"
	},
	{
		"Title": "Senior Seminar",
		"Subject": "IARC",
		"Level": "4200",
		"Hours": "3",
		"CRN": "43671",
		"Meeting": [
			{
				"days": "TT",
				"hours": "01:40  PM - 04:20  PM"
			}
		],
		"Campus": "UT Chattanooga"
	},
	{
		"Title": "Interior Design Advocacy",
		"Subject": "IARC",
		"Level": "4300R",
		"Hours": "1",
		"CRN": "42204",
		"Meeting": [
			{
				"days": "T",
				"hours": "12:15  PM - 01:30  PM"
			}
		],
		"Campus": "UT Chattanooga"
	},
	{
		"Title": "Interior Design Leadership and Planning",
		"Subject": "IARC",
		"Level": "4310R",
		"Hours": "1",
		"CRN": "42205",
		"Meeting": [
			{
				"days": "T",
				"hours": "12:15  PM - 01:30  PM"
			}
		],
		"Campus": "UT Chattanooga"
	},
	{
		"Title": "Departmental Thesis",
		"Subject": "IARC",
		"Level": "4995R",
		"Hours": "1 TO 3",
		"CRN": "43776",
		"Meeting": [
			{
				"days": "",
				"hours": " - "
			}
		],
		"Campus": "UT Chattanooga"
	},
	{
		"Title": "Individual Studies",
		"Subject": "IARC",
		"Level": "4998R",
		"Hours": "1 TO 9",
		"CRN": "43943",
		"Meeting": [
			{
				"days": "",
				"hours": " - "
			}
		],
		"Campus": "UT Chattanooga"
	},
	{
		"Title": "Introduction to Historic Preservation",
		"Subject": "IARC",
		"Level": "4999R",
		"Hours": "3",
		"CRN": "43567",
		"Meeting": [
			{
				"days": "MW",
				"hours": "03:00  PM - 04:30  PM"
			}
		],
		"Campus": "UT Chattanooga"
	},
	{
		"Title": "Color Systems in Interior Design",
		"Subject": "IARC",
		"Level": "4999R",
		"Hours": "3",
		"CRN": "43798",
		"Meeting": [
			{
				"days": "WF",
				"hours": "03:00  PM - 05:30  PM"
			}
		],
		"Campus": "UT Chattanooga"
	}
]