[
	{
		"Title": "Principles of Marketing",
		"Subject": "MKT",
		"Level": "3130",
		"Hours": "3",
		"CRN": "41378",
		"Meeting": [
			{
				"days": "",
				"hours": " - "
			}
		],
		"Campus": "UT Chattanooga"
	},
	{
		"Title": "Principles of Marketing",
		"Subject": "MKT",
		"Level": "3130",
		"Hours": "3",
		"CRN": "40944",
		"Meeting": [
			{
				"days": "",
				"hours": " - "
			}
		],
		"Campus": "UT Chattanooga"
	},
	{
		"Title": "International Marketing",
		"Subject": "MKT",
		"Level": "3180",
		"Hours": "3",
		"CRN": "40307",
		"Meeting": [
			{
				"days": "",
				"hours": " - "
			}
		],
		"Campus": "UTC Online"
	},
	{
		"Title": "International Marketing",
		"Subject": "MKT",
		"Level": "3180",
		"Hours": "3",
		"CRN": "43415",
		"Meeting": [
			{
				"days": "",
				"hours": " - "
			}
		],
		"Campus": "UTC Online"
	},
	{
		"Title": "Integrated Marketing Communications",
		"Subject": "MKT",
		"Level": "3620",
		"Hours": "3",
		"CRN": "41327",
		"Meeting": [
			{
				"days": "",
				"hours": " - "
			}
		],
		"Campus": "UT Chattanooga"
	},
	{
		"Title": "Integrated Marketing Communications",
		"Subject": "MKT",
		"Level": "3620",
		"Hours": "3",
		"CRN": "40309",
		"Meeting": [
			{
				"days": "",
				"hours": " - "
			}
		],
		"Campus": "UT Chattanooga"
	},
	{
		"Title": "Professional Selling",
		"Subject": "MKT",
		"Level": "3630",
		"Hours": "3",
		"CRN": "41817",
		"Meeting": [
			{
				"days": "TT",
				"hours": "12:15  PM - 01:30  PM"
			}
		],
		"Campus": "UT Chattanooga"
	},
	{
		"Title": "Professional Selling",
		"Subject": "MKT",
		"Level": "3630",
		"Hours": "3",
		"CRN": "41818",
		"Meeting": [
			{
				"days": "T",
				"hours": "05:30  PM - 08:00  PM"
			}
		],
		"Campus": "UT Chattanooga"
	},
	{
		"Title": "Professional Selling",
		"Subject": "MKT",
		"Level": "3630",
		"Hours": "3",
		"CRN": "43961",
		"Meeting": [
			{
				"days": "",
				"hours": " - "
			}
		],
		"Campus": "UT Chattanooga"
	},
	{
		"Title": "Retailing",
		"Subject": "MKT",
		"Level": "3640",
		"Hours": "3",
		"CRN": "43416",
		"Meeting": [
			{
				"days": "",
				"hours": " - "
			}
		],
		"Campus": "UTC Online"
	},
	{
		"Title": "Consumer Behavior",
		"Subject": "MKT",
		"Level": "3650",
		"Hours": "3",
		"CRN": "41448",
		"Meeting": [
			{
				"days": "",
				"hours": " - "
			}
		],
		"Campus": "UTC Online"
	},
	{
		"Title": "Consumer Behavior",
		"Subject": "MKT",
		"Level": "3650",
		"Hours": "3",
		"CRN": "43417",
		"Meeting": [
			{
				"days": "",
				"hours": " - "
			}
		],
		"Campus": "UTC Online"
	},
	{
		"Title": "Experiential Learning: Academic Internship Program",
		"Subject": "MKT",
		"Level": "3900R",
		"Hours": "1 TO 3",
		"CRN": "42878",
		"Meeting": [
			{
				"days": "",
				"hours": " - "
			}
		],
		"Campus": "UT Chattanooga"
	},
	{
		"Title": "Business to Business Marketing",
		"Subject": "MKT",
		"Level": "4150",
		"Hours": "3",
		"CRN": "43833",
		"Meeting": [
			{
				"days": "",
				"hours": " - "
			}
		],
		"Campus": "UTC Online"
	},
	{
		"Title": "Digital Marketing",
		"Subject": "MKT",
		"Level": "4310",
		"Hours": "3",
		"CRN": "43418",
		"Meeting": [
			{
				"days": "",
				"hours": " - "
			}
		],
		"Campus": "UTC Online"
	},
	{
		"Title": "Digital Marketing",
		"Subject": "MKT",
		"Level": "4310",
		"Hours": "3",
		"CRN": "41329",
		"Meeting": [
			{
				"days": "TT",
				"hours": "10:50  AM - 12:05  PM"
			}
		],
		"Campus": "UT Chattanooga"
	},
	{
		"Title": "Marketing Research",
		"Subject": "MKT",
		"Level": "4500",
		"Hours": "3",
		"CRN": "41330",
		"Meeting": [
			{
				"days": "T",
				"hours": "05:30  PM - 08:00  PM"
			}
		],
		"Campus": "UT Chattanooga"
	},
	{
		"Title": "Marketing Research",
		"Subject": "MKT",
		"Level": "4500",
		"Hours": "3",
		"CRN": "41032",
		"Meeting": [
			{
				"days": "TT",
				"hours": "03:05  PM - 04:20  PM"
			}
		],
		"Campus": "UT Chattanooga"
	},
	{
		"Title": "Marketing Problems",
		"Subject": "MKT",
		"Level": "4610",
		"Hours": "3",
		"CRN": "41975",
		"Meeting": [
			{
				"days": "MW",
				"hours": "03:25  PM - 04:40  PM"
			}
		],
		"Campus": "UT Chattanooga"
	},
	{
		"Title": "Marketing Problems",
		"Subject": "MKT",
		"Level": "4610",
		"Hours": "3",
		"CRN": "40314",
		"Meeting": [
			{
				"days": "TT",
				"hours": "01:40  PM - 02:55  PM"
			}
		],
		"Campus": "UT Chattanooga"
	},
	{
		"Title": "Marketing Problems",
		"Subject": "MKT",
		"Level": "4610",
		"Hours": "3",
		"CRN": "40313",
		"Meeting": [
			{
				"days": "T",
				"hours": "05:30  PM - 08:00  PM"
			}
		],
		"Campus": "UT Chattanooga"
	},
	{
		"Title": "Departmental Thesis",
		"Subject": "MKT",
		"Level": "4995R",
		"Hours": "1 TO 3",
		"CRN": "43778",
		"Meeting": [
			{
				"days": "",
				"hours": " - "
			}
		],
		"Campus": "UT Chattanooga"
	},
	{
		"Title": "Opportunity Assessment",
		"Subject": "MKT",
		"Level": "5000R",
		"Hours": "3",
		"CRN": "42588",
		"Meeting": [
			{
				"days": "M",
				"hours": "02:00  PM - 04:30  PM"
			}
		],
		"Campus": "UT Chattanooga"
	},
	{
		"Title": "Digital Marketing",
		"Subject": "MKT",
		"Level": "5000R",
		"Hours": "3",
		"CRN": "43420",
		"Meeting": [
			{
				"days": "",
				"hours": " - "
			}
		],
		"Campus": "UTC Online"
	},
	{
		"Title": "Marketing Management",
		"Subject": "MKT",
		"Level": "5860",
		"Hours": "3",
		"CRN": "41944",
		"Meeting": [
			{
				"days": "",
				"hours": " - "
			}
		],
		"Campus": "UTC Online"
	}
]