[
	{
		"Title": "Introduction to the Counseling Profession",
		"Subject": "COUN",
		"Level": "5020",
		"Hours": "3",
		"CRN": "40608",
		"Meeting": [
			{
				"days": "W",
				"hours": "05:15  PM - 07:45  PM"
			},
			{
				"days": "W",
				"hours": "05:15  PM - 07:45  PM"
			},
			{
				"days": "",
				"hours": " - "
			}
		],
		"Campus": "UTC Online"
	},
	{
		"Title": "Theories of Human Development",
		"Subject": "COUN",
		"Level": "5430",
		"Hours": "3",
		"CRN": "40788",
		"Meeting": [
			{
				"days": "",
				"hours": " - "
			}
		],
		"Campus": "UTC Online"
	},
	{
		"Title": "Counseling Skills",
		"Subject": "COUN",
		"Level": "5450",
		"Hours": "3",
		"CRN": "40613",
		"Meeting": [
			{
				"days": "M",
				"hours": "05:15  PM - 07:30  PM"
			},
			{
				"days": "M",
				"hours": "05:15  PM - 07:30  PM"
			},
			{
				"days": "M",
				"hours": "05:15  PM - 07:30  PM"
			},
			{
				"days": "M",
				"hours": "05:15  PM - 07:30  PM"
			},
			{
				"days": "M",
				"hours": "05:15  PM - 07:30  PM"
			}
		],
		"Campus": "UT Chattanooga"
	},
	{
		"Title": "Group Counseling",
		"Subject": "COUN",
		"Level": "5470",
		"Hours": "3",
		"CRN": "41246",
		"Meeting": [
			{
				"days": "M",
				"hours": "05:15  PM - 07:45  PM"
			},
			{
				"days": "M",
				"hours": "05:15  PM - 07:45  PM"
			},
			{
				"days": "M",
				"hours": "05:15  PM - 07:45  PM"
			},
			{
				"days": "M",
				"hours": "05:15  PM - 07:45  PM"
			},
			{
				"days": "M",
				"hours": "05:15  PM - 07:45  PM"
			}
		],
		"Campus": "UT Chattanooga"
	},
	{
		"Title": "Counseling Practicum",
		"Subject": "COUN",
		"Level": "5550",
		"Hours": "3",
		"CRN": "40609",
		"Meeting": [
			{
				"days": "W",
				"hours": "03:30  PM - 05:00  PM"
			},
			{
				"days": "W",
				"hours": "03:30  PM - 05:00  PM"
			},
			{
				"days": "W",
				"hours": "03:30  PM - 05:00  PM"
			},
			{
				"days": "W",
				"hours": "03:30  PM - 05:00  PM"
			},
			{
				"days": "W",
				"hours": "03:30  PM - 05:00  PM"
			}
		],
		"Campus": "UT Chattanooga"
	},
	{
		"Title": "Internship in Clinical Mental Health Counseling",
		"Subject": "COUN",
		"Level": "5590",
		"Hours": "6",
		"CRN": "40789",
		"Meeting": [
			{
				"days": "M",
				"hours": "03:30  PM - 05:00  PM"
			},
			{
				"days": "M",
				"hours": "03:30  PM - 05:00  PM"
			},
			{
				"days": "M",
				"hours": "03:30  PM - 05:00  PM"
			},
			{
				"days": "M",
				"hours": "03:30  PM - 05:00  PM"
			},
			{
				"days": "M",
				"hours": "03:30  PM - 05:00  PM"
			}
		],
		"Campus": "UT Chattanooga"
	},
	{
		"Title": "Introduction to Counseling Supervision",
		"Subject": "COUN",
		"Level": "5630",
		"Hours": "3",
		"CRN": "41221",
		"Meeting": [
			{
				"days": "W",
				"hours": "05:15  PM - 07:30  PM"
			}
		],
		"Campus": "UT Chattanooga"
	},
	{
		"Title": "Seminar in School Counseling",
		"Subject": "COUN",
		"Level": "5650",
		"Hours": "3",
		"CRN": "40610",
		"Meeting": [
			{
				"days": "T",
				"hours": "05:15  PM - 07:45  PM"
			}
		],
		"Campus": "UT Chattanooga"
	},
	{
		"Title": "Internship in Elementary School Counseling",
		"Subject": "COUN",
		"Level": "5700",
		"Hours": "3",
		"CRN": "40611",
		"Meeting": [
			{
				"days": "T",
				"hours": "03:30  PM - 05:00  PM"
			},
			{
				"days": "T",
				"hours": "03:30  PM - 05:00  PM"
			},
			{
				"days": "T",
				"hours": "03:30  PM - 05:00  PM"
			},
			{
				"days": "T",
				"hours": "03:30  PM - 05:00  PM"
			},
			{
				"days": "T",
				"hours": "03:30  PM - 05:00  PM"
			}
		],
		"Campus": "UT Chattanooga"
	},
	{
		"Title": "Internship in Secondary School Counseling",
		"Subject": "COUN",
		"Level": "5710",
		"Hours": "3",
		"CRN": "40612",
		"Meeting": [
			{
				"days": "T",
				"hours": "03:30  PM - 05:00  PM"
			},
			{
				"days": "T",
				"hours": "03:30  PM - 05:00  PM"
			},
			{
				"days": "T",
				"hours": "03:30  PM - 05:00  PM"
			},
			{
				"days": "T",
				"hours": "03:30  PM - 05:00  PM"
			},
			{
				"days": "T",
				"hours": "03:30  PM - 05:00  PM"
			}
		],
		"Campus": "UT Chattanooga"
	},
	{
		"Title": "Internship in Clinical Mental Health Counseling",
		"Subject": "COUN",
		"Level": "5720",
		"Hours": "3",
		"CRN": "40925",
		"Meeting": [
			{
				"days": "M",
				"hours": "03:30  PM - 05:00  PM"
			},
			{
				"days": "M",
				"hours": "03:30  PM - 05:00  PM"
			},
			{
				"days": "M",
				"hours": "03:30  PM - 05:00  PM"
			},
			{
				"days": "M",
				"hours": "03:30  PM - 05:00  PM"
			},
			{
				"days": "M",
				"hours": "03:30  PM - 05:00  PM"
			}
		],
		"Campus": "UT Chattanooga"
	},
	{
		"Title": "Diagnosis and Treatment of Mental Disorders",
		"Subject": "COUN",
		"Level": "5750",
		"Hours": "3",
		"CRN": "41519",
		"Meeting": [
			{
				"days": "T",
				"hours": "05:15  PM - 07:45  PM"
			},
			{
				"days": "T",
				"hours": "05:15  PM - 07:45  PM"
			},
			{
				"days": "T",
				"hours": "05:15  PM - 07:45  PM"
			},
			{
				"days": "T",
				"hours": "05:15  PM - 07:45  PM"
			},
			{
				"days": "T",
				"hours": "05:15  PM - 07:45  PM"
			}
		],
		"Campus": "UT Chattanooga"
	}
]