[
	{
		"Title": "Freshman Honors Studies",
		"Subject": "UHON",
		"Level": "1000R",
		"Hours": "1",
		"CRN": "42470",
		"Meeting": [
			{
				"days": "M",
				"hours": "02:00  PM - 02:50  PM"
			}
		],
		"Campus": "UT Chattanooga"
	},
	{
		"Title": "Freshman Honors Studies",
		"Subject": "UHON",
		"Level": "1000R",
		"Hours": "1",
		"CRN": "42471",
		"Meeting": [
			{
				"days": "M",
				"hours": "03:00  PM - 03:50  PM"
			}
		],
		"Campus": "UT Chattanooga"
	},
	{
		"Title": "Freshman Honors Studies",
		"Subject": "UHON",
		"Level": "1000R",
		"Hours": "1",
		"CRN": "42472",
		"Meeting": [
			{
				"days": "W",
				"hours": "02:00  PM - 02:50  PM"
			}
		],
		"Campus": "UT Chattanooga"
	},
	{
		"Title": "Freshman Honors Studies",
		"Subject": "UHON",
		"Level": "1000R",
		"Hours": "1",
		"CRN": "42473",
		"Meeting": [
			{
				"days": "W",
				"hours": "03:00  PM - 03:50  PM"
			}
		],
		"Campus": "UT Chattanooga"
	},
	{
		"Title": "Freshman Honors Studies",
		"Subject": "UHON",
		"Level": "1000R",
		"Hours": "1",
		"CRN": "44016",
		"Meeting": [
			{
				"days": "W",
				"hours": "04:00  PM - 04:50  PM"
			}
		],
		"Campus": "UT Chattanooga"
	},
	{
		"Title": "Humanities I",
		"Subject": "UHON",
		"Level": "1010",
		"Hours": "6",
		"CRN": "42474",
		"Meeting": [
			{
				"days": "MWF",
				"hours": "12:00  PM - 01:50  PM"
			}
		],
		"Campus": "UT Chattanooga"
	},
	{
		"Title": "Humanities I",
		"Subject": "UHON",
		"Level": "1010",
		"Hours": "6",
		"CRN": "40119",
		"Meeting": [
			{
				"days": "MWF",
				"hours": "12:00  PM - 01:50  PM"
			}
		],
		"Campus": "UT Chattanooga"
	},
	{
		"Title": "Humanities I",
		"Subject": "UHON",
		"Level": "1010",
		"Hours": "6",
		"CRN": "41036",
		"Meeting": [
			{
				"days": "MWF",
				"hours": "12:00  PM - 01:50  PM"
			}
		],
		"Campus": "UT Chattanooga"
	},
	{
		"Title": "Humanities I",
		"Subject": "UHON",
		"Level": "1010",
		"Hours": "6",
		"CRN": "42475",
		"Meeting": [
			{
				"days": "MWF",
				"hours": "12:00  PM - 01:50  PM"
			}
		],
		"Campus": "UT Chattanooga"
	},
	{
		"Title": "Humanities I",
		"Subject": "UHON",
		"Level": "1010",
		"Hours": "6",
		"CRN": "40118",
		"Meeting": [
			{
				"days": "MWF",
				"hours": "12:00  PM - 01:50  PM"
			}
		],
		"Campus": "UT Chattanooga"
	},
	{
		"Title": "Special Projects",
		"Subject": "UHON",
		"Level": "1999R",
		"Hours": "1",
		"CRN": "42476",
		"Meeting": [
			{
				"days": "",
				"hours": " - "
			}
		],
		"Campus": "UT Chattanooga"
	},
	{
		"Title": "Special Projects",
		"Subject": "UHON",
		"Level": "1999R",
		"Hours": "3",
		"CRN": "43916",
		"Meeting": [
			{
				"days": "T",
				"hours": "02:00  PM - 04:30  PM"
			}
		],
		"Campus": "UT Chattanooga"
	},
	{
		"Title": "Sophomore Honors Studies",
		"Subject": "UHON",
		"Level": "2000R",
		"Hours": "1",
		"CRN": "42477",
		"Meeting": [
			{
				"days": "T",
				"hours": "04:30  PM - 05:20  PM"
			}
		],
		"Campus": "UT Chattanooga"
	},
	{
		"Title": "Sophomore Honors Studies",
		"Subject": "UHON",
		"Level": "2000R",
		"Hours": "1",
		"CRN": "42480",
		"Meeting": [
			{
				"days": "T",
				"hours": "04:30  PM - 05:20  PM"
			}
		],
		"Campus": "UT Chattanooga"
	},
	{
		"Title": "Sophomore Honors Studies",
		"Subject": "UHON",
		"Level": "2000R",
		"Hours": "1",
		"CRN": "42478",
		"Meeting": [
			{
				"days": "T",
				"hours": "08:00  AM - 08:50  AM"
			}
		],
		"Campus": "UT Chattanooga"
	},
	{
		"Title": "Sophomore Honors Studies",
		"Subject": "UHON",
		"Level": "2000R",
		"Hours": "1",
		"CRN": "42479",
		"Meeting": [
			{
				"days": "T",
				"hours": "04:30  PM - 05:20  PM"
			}
		],
		"Campus": "UT Chattanooga"
	},
	{
		"Title": "Innovation Lab I",
		"Subject": "UHON",
		"Level": "2850R",
		"Hours": "3",
		"CRN": "42483",
		"Meeting": [
			{
				"days": "T",
				"hours": "02:00  PM - 04:30  PM"
			}
		],
		"Campus": "UT Chattanooga"
	},
	{
		"Title": "Innovation Lab I",
		"Subject": "UHON",
		"Level": "2850R",
		"Hours": "3",
		"CRN": "42482",
		"Meeting": [
			{
				"days": "T",
				"hours": "10:00  AM - 12:30  PM"
			}
		],
		"Campus": "UT Chattanooga"
	},
	{
		"Title": "Innovation Lab I",
		"Subject": "UHON",
		"Level": "2850R",
		"Hours": "3",
		"CRN": "43016",
		"Meeting": [
			{
				"days": "W",
				"hours": "02:00  PM - 04:30  PM"
			}
		],
		"Campus": "UT Chattanooga"
	},
	{
		"Title": "Innovation Lab I",
		"Subject": "UHON",
		"Level": "2850R",
		"Hours": "3",
		"CRN": "43915",
		"Meeting": [
			{
				"days": "W",
				"hours": "11:00  AM - 01:30  PM"
			}
		],
		"Campus": "UT Chattanooga"
	},
	{
		"Title": "Junior Honors Studies",
		"Subject": "UHON",
		"Level": "3000R",
		"Hours": "1",
		"CRN": "42484",
		"Meeting": [
			{
				"days": "W",
				"hours": "04:30  PM - 05:20  PM"
			}
		],
		"Campus": "UT Chattanooga"
	},
	{
		"Title": "Mythology of the Night Sky",
		"Subject": "UHON",
		"Level": "3520R",
		"Hours": "3",
		"CRN": "43620",
		"Meeting": [
			{
				"days": "TT",
				"hours": "09:25  AM - 10:40  AM"
			}
		],
		"Campus": "UT Chattanooga"
	},
	{
		"Title": "Narratives of Illness and Care",
		"Subject": "UHON",
		"Level": "3530R",
		"Hours": "3",
		"CRN": "43481",
		"Meeting": [
			{
				"days": "M",
				"hours": "03:25  PM - 04:40  PM"
			},
			{
				"days": "W",
				"hours": "03:25  PM - 04:40  PM"
			}
		],
		"Campus": "UT Chattanooga"
	},
	{
		"Title": "The Good Place",
		"Subject": "UHON",
		"Level": "3530R",
		"Hours": "3",
		"CRN": "43482",
		"Meeting": [
			{
				"days": "TT",
				"hours": "10:50  AM - 12:05  PM"
			}
		],
		"Campus": "UT Chattanooga"
	},
	{
		"Title": "Applied Theatre in the Healthcare Setting",
		"Subject": "UHON",
		"Level": "3540R",
		"Hours": "3",
		"CRN": "42487",
		"Meeting": [
			{
				"days": "MW",
				"hours": "02:00  PM - 03:15  PM"
			}
		],
		"Campus": "UT Chattanooga"
	},
	{
		"Title": "Applied Theatre in the Healthcare Setting",
		"Subject": "UHON",
		"Level": "3550R",
		"Hours": "3",
		"CRN": "43483",
		"Meeting": [
			{
				"days": "MW",
				"hours": "02:00  PM - 03:15  PM"
			}
		],
		"Campus": "UT Chattanooga"
	},
	{
		"Title": "Emotions and Emotional Intelligence",
		"Subject": "UHON",
		"Level": "3550R",
		"Hours": "3",
		"CRN": "42489",
		"Meeting": [
			{
				"days": "T",
				"hours": "05:30  PM - 08:00  PM"
			}
		],
		"Campus": "UT Chattanooga"
	},
	{
		"Title": "Cultivating Creativity",
		"Subject": "UHON",
		"Level": "3550R",
		"Hours": "3",
		"CRN": "42488",
		"Meeting": [
			{
				"days": "T",
				"hours": "09:25  AM - 10:40  AM"
			},
			{
				"days": "T",
				"hours": "09:25  AM - 10:40  AM"
			},
			{
				"days": "T",
				"hours": "09:25  AM - 10:40  AM"
			}
		],
		"Campus": "UT Chattanooga"
	},
	{
		"Title": "Social Spaces Dialogue: Precarity",
		"Subject": "UHON",
		"Level": "3550R",
		"Hours": "3",
		"CRN": "43628",
		"Meeting": [
			{
				"days": "TT",
				"hours": "01:40  PM - 02:55  PM"
			}
		],
		"Campus": "UT Chattanooga"
	},
	{
		"Title": "Narratives of Illness and Care",
		"Subject": "UHON",
		"Level": "3560R",
		"Hours": "3",
		"CRN": "43484",
		"Meeting": [
			{
				"days": "M",
				"hours": "03:25  PM - 04:40  PM"
			},
			{
				"days": "W",
				"hours": "03:25  PM - 04:40  PM"
			}
		],
		"Campus": "UT Chattanooga"
	},
	{
		"Title": "Topics in Natural Sciences: Mythology of the Night Sky",
		"Subject": "UHON",
		"Level": "3565R",
		"Hours": "4",
		"CRN": "43604",
		"Meeting": [
			{
				"days": "TT",
				"hours": "09:25  AM - 10:40  AM"
			},
			{
				"days": "F",
				"hours": "04:00  PM - 06:00  PM"
			}
		],
		"Campus": "UT Chattanooga"
	},
	{
		"Title": "Language of Mathematics",
		"Subject": "UHON",
		"Level": "3570R",
		"Hours": "3",
		"CRN": "43605",
		"Meeting": [
			{
				"days": "TT",
				"hours": "03:05  PM - 04:20  PM"
			}
		],
		"Campus": "UT Chattanooga"
	},
	{
		"Title": "World Food Culture",
		"Subject": "UHON",
		"Level": "3590R",
		"Hours": "3",
		"CRN": "43486",
		"Meeting": [
			{
				"days": "MW",
				"hours": "03:25  PM - 04:40  PM"
			}
		],
		"Campus": "UT Chattanooga"
	},
	{
		"Title": "Experiential Learning: Internship",
		"Subject": "UHON",
		"Level": "3950R",
		"Hours": "0 TO 3",
		"CRN": "42971",
		"Meeting": [
			{
				"days": "",
				"hours": " - "
			}
		],
		"Campus": "UT Chattanooga"
	},
	{
		"Title": "Experiential Learning: Internship",
		"Subject": "UHON",
		"Level": "3950R",
		"Hours": "0 TO 3",
		"CRN": "42492",
		"Meeting": [
			{
				"days": "",
				"hours": " - "
			}
		],
		"Campus": "UT Chattanooga"
	},
	{
		"Title": "Experiential Learning: Internship",
		"Subject": "UHON",
		"Level": "3950R",
		"Hours": "0 TO 3",
		"CRN": "44034",
		"Meeting": [
			{
				"days": "",
				"hours": " - "
			}
		],
		"Campus": "UT Chattanooga"
	},
	{
		"Title": "Departmental Thesis",
		"Subject": "UHON",
		"Level": "4995R",
		"Hours": "1 TO 3",
		"CRN": "43790",
		"Meeting": [
			{
				"days": "",
				"hours": " - "
			}
		],
		"Campus": "UT Chattanooga"
	},
	{
		"Title": "Departmental Thesis",
		"Subject": "UHON",
		"Level": "4995R",
		"Hours": "1 TO 3",
		"CRN": "43791",
		"Meeting": [
			{
				"days": "",
				"hours": " - "
			}
		],
		"Campus": "UT Chattanooga"
	},
	{
		"Title": "Departmental Thesis",
		"Subject": "UHON",
		"Level": "4995R",
		"Hours": "1 TO 3",
		"CRN": "43792",
		"Meeting": [
			{
				"days": "",
				"hours": " - "
			}
		],
		"Campus": "UT Chattanooga"
	},
	{
		"Title": "Individual Studies",
		"Subject": "UHON",
		"Level": "4998R",
		"Hours": "1 TO 9",
		"CRN": "42675",
		"Meeting": [
			{
				"days": "",
				"hours": " - "
			}
		],
		"Campus": "UT Chattanooga"
	}
]