[
	{
		"Title": "Leadership and Learning: Theory to Practice",
		"Subject": "LEAD",
		"Level": "7010",
		"Hours": "4",
		"CRN": "43883",
		"Meeting": [
			{
				"days": "S",
				"hours": "08:00  AM - 01:00  PM"
			},
			{
				"days": "S",
				"hours": "08:00  AM - 01:00  PM"
			},
			{
				"days": "S",
				"hours": "08:00  AM - 01:00  PM"
			},
			{
				"days": "S",
				"hours": "08:00  AM - 01:00  PM"
			},
			{
				"days": "",
				"hours": " - "
			}
		],
		"Campus": "UTC Online"
	},
	{
		"Title": "Research and Inquiry",
		"Subject": "LEAD",
		"Level": "7020",
		"Hours": "2",
		"CRN": "43884",
		"Meeting": [
			{
				"days": "S",
				"hours": "02:00  PM - 05:00  PM"
			},
			{
				"days": "S",
				"hours": "02:00  PM - 05:00  PM"
			},
			{
				"days": "S",
				"hours": "02:00  PM - 05:00  PM"
			},
			{
				"days": "S",
				"hours": "02:00  PM - 05:00  PM"
			},
			{
				"days": "",
				"hours": " - "
			}
		],
		"Campus": "UTC Online"
	},
	{
		"Title": "Organizational Theory, Development, and Transformation",
		"Subject": "LEAD",
		"Level": "7250",
		"Hours": "3",
		"CRN": "43865",
		"Meeting": [
			{
				"days": "S",
				"hours": "08:00  AM - 12:00  PM"
			},
			{
				"days": "S",
				"hours": "08:00  AM - 12:00  PM"
			},
			{
				"days": "S",
				"hours": "08:00  AM - 12:00  PM"
			},
			{
				"days": "S",
				"hours": "08:00  AM - 12:00  PM"
			},
			{
				"days": "",
				"hours": " - "
			}
		],
		"Campus": "UTC Online"
	},
	{
		"Title": "Reflective Practice and Competency Development",
		"Subject": "LEAD",
		"Level": "7450",
		"Hours": "3",
		"CRN": "41312",
		"Meeting": [
			{
				"days": "T",
				"hours": "05:00  PM - 07:30  PM"
			},
			{
				"days": "",
				"hours": " - "
			}
		],
		"Campus": "UTC Online"
	},
	{
		"Title": "Learning Models, Design and Communication",
		"Subject": "LEAD",
		"Level": "7500",
		"Hours": "3",
		"CRN": "43866",
		"Meeting": [
			{
				"days": "S",
				"hours": "01:00  PM - 05:00  PM"
			},
			{
				"days": "S",
				"hours": "01:00  PM - 05:00  PM"
			},
			{
				"days": "S",
				"hours": "01:00  PM - 05:00  PM"
			},
			{
				"days": "S",
				"hours": "01:00  PM - 05:00  PM"
			},
			{
				"days": "",
				"hours": " - "
			}
		],
		"Campus": "UTC Online"
	},
	{
		"Title": "Pre-Dissertation Seminar",
		"Subject": "LEAD",
		"Level": "7700R",
		"Hours": "3",
		"CRN": "43868",
		"Meeting": [
			{
				"days": "F",
				"hours": "05:00  PM - 07:30  PM"
			},
			{
				"days": "F",
				"hours": "05:00  PM - 07:30  PM"
			},
			{
				"days": "F",
				"hours": "05:00  PM - 07:30  PM"
			},
			{
				"days": "F",
				"hours": "05:00  PM - 07:30  PM"
			},
			{
				"days": "",
				"hours": " - "
			}
		],
		"Campus": "UTC Online"
	},
	{
		"Title": "Data-Informed Aspects of Decision Making",
		"Subject": "LEAD",
		"Level": "7820",
		"Hours": "3",
		"CRN": "43867",
		"Meeting": [
			{
				"days": "S",
				"hours": "01:00  PM - 05:00  PM"
			},
			{
				"days": "S",
				"hours": "01:00  PM - 05:00  PM"
			},
			{
				"days": "S",
				"hours": "01:00  PM - 05:00  PM"
			},
			{
				"days": "S",
				"hours": "01:00  PM - 05:00  PM"
			},
			{
				"days": "",
				"hours": " - "
			}
		],
		"Campus": "UTC Online"
	},
	{
		"Title": "Higher Education: Administration and Leadership",
		"Subject": "LEAD",
		"Level": "7830",
		"Hours": "3",
		"CRN": "43869",
		"Meeting": [
			{
				"days": "S",
				"hours": "08:00  AM - 12:00  PM"
			},
			{
				"days": "S",
				"hours": "08:00  AM - 12:00  PM"
			},
			{
				"days": "S",
				"hours": "08:00  AM - 12:00  PM"
			},
			{
				"days": "",
				"hours": " - "
			}
		],
		"Campus": "UTC Online"
	},
	{
		"Title": "Comprehensive Assessment Continuance",
		"Subject": "LEAD",
		"Level": "7995R",
		"Hours": "3",
		"CRN": "41699",
		"Meeting": [
			{
				"days": "",
				"hours": " - "
			}
		],
		"Campus": "UTC Online"
	},
	{
		"Title": "Dissertation",
		"Subject": "LEAD",
		"Level": "7999R",
		"Hours": "2 TO 6",
		"CRN": "43870",
		"Meeting": [
			{
				"days": "",
				"hours": " - "
			}
		],
		"Campus": "UTC Online"
	},
	{
		"Title": "Dissertation",
		"Subject": "LEAD",
		"Level": "7999R",
		"Hours": "2 TO 6",
		"CRN": "43871",
		"Meeting": [
			{
				"days": "",
				"hours": " - "
			}
		],
		"Campus": "UTC Online"
	},
	{
		"Title": "Dissertation",
		"Subject": "LEAD",
		"Level": "7999R",
		"Hours": "2 TO 6",
		"CRN": "43872",
		"Meeting": [
			{
				"days": "",
				"hours": " - "
			}
		],
		"Campus": "UTC Online"
	}
]