[
	{
		"Title": "Introduction to the Criminal Justice System",
		"Subject": "CRMJ",
		"Level": "1100",
		"Hours": "3",
		"CRN": "40697",
		"Meeting": [
			{
				"days": "M",
				"hours": "05:30  PM - 08:00  PM"
			}
		],
		"Campus": "UT Chattanooga"
	},
	{
		"Title": "Introduction to the Criminal Justice System",
		"Subject": "CRMJ",
		"Level": "1100",
		"Hours": "3",
		"CRN": "41527",
		"Meeting": [
			{
				"days": "TT",
				"hours": "08:00  AM - 09:15  AM"
			}
		],
		"Campus": "UT Chattanooga"
	},
	{
		"Title": "Introduction to the Criminal Justice System",
		"Subject": "CRMJ",
		"Level": "1100",
		"Hours": "3",
		"CRN": "41969",
		"Meeting": [
			{
				"days": "MWF",
				"hours": "10:00  AM - 10:50  AM"
			}
		],
		"Campus": "UT Chattanooga"
	},
	{
		"Title": "Introduction to the Criminal Justice System",
		"Subject": "CRMJ",
		"Level": "1100",
		"Hours": "3",
		"CRN": "40472",
		"Meeting": [
			{
				"days": "MWF",
				"hours": "12:00  PM - 12:50  PM"
			}
		],
		"Campus": "UT Chattanooga"
	},
	{
		"Title": "Introduction to the Criminal Justice System",
		"Subject": "CRMJ",
		"Level": "1100",
		"Hours": "3",
		"CRN": "40529",
		"Meeting": [
			{
				"days": "TT",
				"hours": "08:00  AM - 09:15  AM"
			}
		],
		"Campus": "UT Chattanooga"
	},
	{
		"Title": "Introduction to the Criminal Justice System",
		"Subject": "CRMJ",
		"Level": "1100",
		"Hours": "3",
		"CRN": "41942",
		"Meeting": [
			{
				"days": "MWF",
				"hours": "09:00  AM - 09:50  AM"
			}
		],
		"Campus": "UT Chattanooga"
	},
	{
		"Title": "Introduction to the Criminal Justice System",
		"Subject": "CRMJ",
		"Level": "1100",
		"Hours": "3",
		"CRN": "42990",
		"Meeting": [
			{
				"days": "",
				"hours": " - "
			}
		],
		"Campus": "UT Chattanooga"
	},
	{
		"Title": "Introduction to the Criminal Justice System",
		"Subject": "CRMJ",
		"Level": "1100",
		"Hours": "3",
		"CRN": "42259",
		"Meeting": [
			{
				"days": "",
				"hours": " - "
			}
		],
		"Campus": "UT Chattanooga"
	},
	{
		"Title": "Introduction to the Criminal Justice System",
		"Subject": "CRMJ",
		"Level": "1100",
		"Hours": "3",
		"CRN": "43962",
		"Meeting": [
			{
				"days": "MW",
				"hours": "11:00  AM - 11:50  AM"
			},
			{
				"days": "F",
				"hours": "11:00  AM - 11:50  AM"
			}
		],
		"Campus": "UT Chattanooga"
	},
	{
		"Title": "Introduction to the Criminal Justice System",
		"Subject": "CRMJ",
		"Level": "1100",
		"Hours": "3",
		"CRN": "42654",
		"Meeting": [
			{
				"days": "TT",
				"hours": "10:50  AM - 12:05  PM"
			}
		],
		"Campus": "UT Chattanooga"
	},
	{
		"Title": "Introduction to the Criminal Justice System",
		"Subject": "CRMJ",
		"Level": "1100",
		"Hours": "3",
		"CRN": "43278",
		"Meeting": [
			{
				"days": "",
				"hours": " - "
			}
		],
		"Campus": "UT Chattanooga"
	},
	{
		"Title": "Criminal Law",
		"Subject": "CRMJ",
		"Level": "1700",
		"Hours": "3",
		"CRN": "42640",
		"Meeting": [
			{
				"days": "TT",
				"hours": "12:15  PM - 01:30  PM"
			}
		],
		"Campus": "UT Chattanooga"
	},
	{
		"Title": "Criminal Law",
		"Subject": "CRMJ",
		"Level": "1700",
		"Hours": "3",
		"CRN": "42641",
		"Meeting": [
			{
				"days": "",
				"hours": " - "
			}
		],
		"Campus": "UT Chattanooga"
	},
	{
		"Title": "Violence in America",
		"Subject": "CRMJ",
		"Level": "2010",
		"Hours": "3",
		"CRN": "41528",
		"Meeting": [
			{
				"days": "T",
				"hours": "05:30  PM - 08:00  PM"
			}
		],
		"Campus": "UT Chattanooga"
	},
	{
		"Title": "Criminology",
		"Subject": "CRMJ",
		"Level": "2100",
		"Hours": "3",
		"CRN": "40995",
		"Meeting": [
			{
				"days": "",
				"hours": " - "
			}
		],
		"Campus": "UT Chattanooga"
	},
	{
		"Title": "Criminology",
		"Subject": "CRMJ",
		"Level": "2100",
		"Hours": "3",
		"CRN": "40996",
		"Meeting": [
			{
				"days": "",
				"hours": " - "
			}
		],
		"Campus": "UTC Online"
	},
	{
		"Title": "Family Law",
		"Subject": "CRMJ",
		"Level": "2450",
		"Hours": "3",
		"CRN": "42642",
		"Meeting": [
			{
				"days": "",
				"hours": " - "
			}
		],
		"Campus": "UT Chattanooga"
	},
	{
		"Title": "Family Law",
		"Subject": "CRMJ",
		"Level": "2450",
		"Hours": "3",
		"CRN": "43272",
		"Meeting": [
			{
				"days": "TT",
				"hours": "03:05  PM - 04:20  PM"
			}
		],
		"Campus": "UT Chattanooga"
	},
	{
		"Title": "Violence Against Women",
		"Subject": "CRMJ",
		"Level": "2950",
		"Hours": "3",
		"CRN": "43279",
		"Meeting": [
			{
				"days": "",
				"hours": " - "
			}
		],
		"Campus": "UTC Online"
	},
	{
		"Title": "Criminal Justice Research Methodology",
		"Subject": "CRMJ",
		"Level": "3110",
		"Hours": "3",
		"CRN": "40473",
		"Meeting": [
			{
				"days": "MW",
				"hours": "10:00  AM - 10:50  AM"
			},
			{
				"days": "",
				"hours": " - "
			}
		],
		"Campus": "UT Chattanooga"
	},
	{
		"Title": "Criminal Justice Research Methodology",
		"Subject": "CRMJ",
		"Level": "3110",
		"Hours": "3",
		"CRN": "43273",
		"Meeting": [
			{
				"days": "",
				"hours": " - "
			}
		],
		"Campus": "UT Chattanooga"
	},
	{
		"Title": "Courts",
		"Subject": "CRMJ",
		"Level": "3250",
		"Hours": "3",
		"CRN": "41411",
		"Meeting": [
			{
				"days": "",
				"hours": " - "
			}
		],
		"Campus": "UT Chattanooga"
	},
	{
		"Title": "Courts",
		"Subject": "CRMJ",
		"Level": "3250",
		"Hours": "3",
		"CRN": "40622",
		"Meeting": [
			{
				"days": "",
				"hours": " - "
			}
		],
		"Campus": "UTC Online"
	},
	{
		"Title": "Race, Class, Gender and Crime",
		"Subject": "CRMJ",
		"Level": "3310",
		"Hours": "3",
		"CRN": "42907",
		"Meeting": [
			{
				"days": "",
				"hours": " - "
			}
		],
		"Campus": "UT Chattanooga"
	},
	{
		"Title": "Media and the Criminal Justice System",
		"Subject": "CRMJ",
		"Level": "3500",
		"Hours": "3",
		"CRN": "43280",
		"Meeting": [
			{
				"days": "",
				"hours": " - "
			}
		],
		"Campus": "UTC Online"
	},
	{
		"Title": "Public and Private Security",
		"Subject": "CRMJ",
		"Level": "3550",
		"Hours": "3",
		"CRN": "43274",
		"Meeting": [
			{
				"days": "MWF",
				"hours": "01:00  PM - 01:50  PM"
			}
		],
		"Campus": "UT Chattanooga"
	},
	{
		"Title": "Drugs: The Law and the Community",
		"Subject": "CRMJ",
		"Level": "3700",
		"Hours": "3",
		"CRN": "41270",
		"Meeting": [
			{
				"days": "",
				"hours": " - "
			}
		],
		"Campus": "UT Chattanooga"
	},
	{
		"Title": "Serial Murder",
		"Subject": "CRMJ",
		"Level": "3720",
		"Hours": "3",
		"CRN": "43882",
		"Meeting": [
			{
				"days": "MWF",
				"hours": "02:00  PM - 02:50  PM"
			}
		],
		"Campus": "UT Chattanooga"
	},
	{
		"Title": "ConstitutionalÂ Law",
		"Subject": "CRMJ",
		"Level": "4050",
		"Hours": "3",
		"CRN": "42644",
		"Meeting": [
			{
				"days": "",
				"hours": " - "
			}
		],
		"Campus": "UTC Online"
	},
	{
		"Title": "Terrorism",
		"Subject": "CRMJ",
		"Level": "4140",
		"Hours": "3",
		"CRN": "41355",
		"Meeting": [
			{
				"days": "",
				"hours": " - "
			}
		],
		"Campus": "UT Chattanooga"
	},
	{
		"Title": "White Collar and Corporate Crime",
		"Subject": "CRMJ",
		"Level": "4150",
		"Hours": "3",
		"CRN": "40777",
		"Meeting": [
			{
				"days": "",
				"hours": " - "
			}
		],
		"Campus": "UTC Online"
	},
	{
		"Title": "Ethics in Criminal Justice",
		"Subject": "CRMJ",
		"Level": "4300",
		"Hours": "3",
		"CRN": "43281",
		"Meeting": [
			{
				"days": "",
				"hours": " - "
			}
		],
		"Campus": "UTC Online"
	},
	{
		"Title": "Gangs and Crime",
		"Subject": "CRMJ",
		"Level": "4340",
		"Hours": "3",
		"CRN": "40710",
		"Meeting": [
			{
				"days": "",
				"hours": " - "
			}
		],
		"Campus": "UTC Online"
	},
	{
		"Title": "Criminal Justice Administration",
		"Subject": "CRMJ",
		"Level": "4500",
		"Hours": "3",
		"CRN": "42621",
		"Meeting": [
			{
				"days": "",
				"hours": " - "
			}
		],
		"Campus": "UTC Online"
	},
	{
		"Title": "Criminal Justice Internship",
		"Subject": "CRMJ",
		"Level": "4780",
		"Hours": "3",
		"CRN": "40530",
		"Meeting": [
			{
				"days": "",
				"hours": " - "
			}
		],
		"Campus": "UTC Online"
	},
	{
		"Title": "Criminal Justice Advanced Internship",
		"Subject": "CRMJ",
		"Level": "4790",
		"Hours": "3",
		"CRN": "40531",
		"Meeting": [
			{
				"days": "",
				"hours": " - "
			}
		],
		"Campus": "UTC Online"
	},
	{
		"Title": "Capstone in Critical Justice Issues",
		"Subject": "CRMJ",
		"Level": "4850",
		"Hours": "3",
		"CRN": "40474",
		"Meeting": [
			{
				"days": "",
				"hours": " - "
			}
		],
		"Campus": "UTC Online"
	},
	{
		"Title": "Capstone in Critical Justice Issues",
		"Subject": "CRMJ",
		"Level": "4850",
		"Hours": "3",
		"CRN": "40623",
		"Meeting": [
			{
				"days": "",
				"hours": " - "
			}
		],
		"Campus": "UTC Online"
	},
	{
		"Title": "Departmental Thesis",
		"Subject": "CRMJ",
		"Level": "4995R",
		"Hours": "1 TO 3",
		"CRN": "43802",
		"Meeting": [
			{
				"days": "",
				"hours": " - "
			}
		],
		"Campus": "UT Chattanooga"
	},
	{
		"Title": "Individual Studies",
		"Subject": "CRMJ",
		"Level": "4998R",
		"Hours": "3",
		"CRN": "42261",
		"Meeting": [
			{
				"days": "",
				"hours": " - "
			}
		],
		"Campus": "UT Chattanooga"
	},
	{
		"Title": "Individual Studies",
		"Subject": "CRMJ",
		"Level": "4998R",
		"Hours": "1 TO 9",
		"CRN": "43162",
		"Meeting": [
			{
				"days": "",
				"hours": " - "
			}
		],
		"Campus": "UT Chattanooga"
	},
	{
		"Title": "Individual Studies",
		"Subject": "CRMJ",
		"Level": "4998R",
		"Hours": "1 TO 9",
		"CRN": "43818",
		"Meeting": [
			{
				"days": "",
				"hours": " - "
			}
		],
		"Campus": "UT Chattanooga"
	},
	{
		"Title": "Law and Film",
		"Subject": "CRMJ",
		"Level": "4999R",
		"Hours": "3",
		"CRN": "42264",
		"Meeting": [
			{
				"days": "",
				"hours": " - "
			}
		],
		"Campus": "UTC Online"
	},
	{
		"Title": "Intelligence-Led Policing",
		"Subject": "CRMJ",
		"Level": "4999R",
		"Hours": "3",
		"CRN": "43275",
		"Meeting": [
			{
				"days": "MW",
				"hours": "03:25  PM - 04:40  PM"
			}
		],
		"Campus": "UT Chattanooga"
	},
	{
		"Title": "Legal Issues Facing Sex and Gender Minorities",
		"Subject": "CRMJ",
		"Level": "4999R",
		"Hours": "3",
		"CRN": "43276",
		"Meeting": [
			{
				"days": "M",
				"hours": "02:00  PM - 04:30  PM"
			}
		],
		"Campus": "UT Chattanooga"
	},
	{
		"Title": "Criminal Justice Proseminar",
		"Subject": "CRMJ",
		"Level": "5000",
		"Hours": "3",
		"CRN": "42266",
		"Meeting": [
			{
				"days": "",
				"hours": " - "
			}
		],
		"Campus": "UTC Online"
	},
	{
		"Title": "Research Methodology I",
		"Subject": "CRMJ",
		"Level": "5010",
		"Hours": "3",
		"CRN": "41531",
		"Meeting": [
			{
				"days": "W",
				"hours": "05:30  PM - 08:00  PM"
			}
		],
		"Campus": "UT Chattanooga"
	},
	{
		"Title": "Family Violence",
		"Subject": "CRMJ",
		"Level": "5100R",
		"Hours": "3",
		"CRN": "43285",
		"Meeting": [
			{
				"days": "",
				"hours": " - "
			}
		],
		"Campus": "UTC Online"
	},
	{
		"Title": "Cyber Crimes",
		"Subject": "CRMJ",
		"Level": "5100R",
		"Hours": "3",
		"CRN": "43286",
		"Meeting": [
			{
				"days": "",
				"hours": " - "
			}
		],
		"Campus": "UTC Online"
	},
	{
		"Title": "Diversity and Crime",
		"Subject": "CRMJ",
		"Level": "5130",
		"Hours": "3",
		"CRN": "43277",
		"Meeting": [
			{
				"days": "T",
				"hours": "05:30  PM - 08:00  PM"
			}
		],
		"Campus": "UT Chattanooga"
	},
	{
		"Title": "Internship in Criminal Justice",
		"Subject": "CRMJ",
		"Level": "5600",
		"Hours": "3",
		"CRN": "40475",
		"Meeting": [
			{
				"days": "",
				"hours": " - "
			}
		],
		"Campus": "UTC Online"
	},
	{
		"Title": "Individual Studies",
		"Subject": "CRMJ",
		"Level": "5997R",
		"Hours": "1 TO 9",
		"CRN": "41131",
		"Meeting": [
			{
				"days": "",
				"hours": " - "
			}
		],
		"Campus": "UT Chattanooga"
	},
	{
		"Title": "Individual Studies",
		"Subject": "CRMJ",
		"Level": "5997R",
		"Hours": "1 TO 9",
		"CRN": "43193",
		"Meeting": [
			{
				"days": "",
				"hours": " - "
			}
		],
		"Campus": "UT Chattanooga"
	},
	{
		"Title": "Individual Studies",
		"Subject": "CRMJ",
		"Level": "5997R",
		"Hours": "1 TO 9",
		"CRN": "43720",
		"Meeting": [
			{
				"days": "",
				"hours": " - "
			}
		],
		"Campus": "UT Chattanooga"
	},
	{
		"Title": "Thesis",
		"Subject": "CRMJ",
		"Level": "5999R",
		"Hours": "3",
		"CRN": "41504",
		"Meeting": [
			{
				"days": "",
				"hours": " - "
			}
		],
		"Campus": "UT Chattanooga"
	}
]